,index,Unnamed: 0,operator_name,physical_street,physical_city,physical_county,physical_zip,mailing_street,mailing_city,mailing_state,mailing_zip,operator_phone,date_placed_in_operation,basin_plan_designation,assessor_parcels,milk_cows_open_confinement,milk_cows_under_roof,milk_cows_max_number,milk_cows_avg_number,dry_cows_open_confinement,dry_cows_under_roof,dry_cows_max_number,dry_cows_avg_number,bred_heifers_open_confinement,bred_heifers_under_roof,bred_heifers_max_number,bred_heifers_avg_number,heifers_7_14_mo_open_confinement,heifers_7_14_mo_under_roof,heifers_7_14_mo_max_number,heifers_7_14_mo_avg_number,calves_4_6_mo_open_confinement,calves_4_6_mo_under_roof,calves_4_6_mo_max_number,calves_4_6_mo_avg_number,calves_0_3_mo_open_confinement,calves_0_3_mo_under_roof,calves_0_3_mo_max_number,calves_0_3_mo_avg_number,predominant_breed,avg_milk_production_lbs_per_cow_per_day,total_animals,total_manure_excreted_tons_per_period,nitrogen_from_manure_lbs,nitrogen_after_ammonia_losses_lbs,phosphorus_from_manure_lbs,potassium_from_manure_lbs,salt_from_manure_lbs,process_wastewater_generated_gal,process_wastewater_applied_gal,fresh_water_imported_gal,fresh_water_exported_gal,address,latitude,longitude
2,2,2,O'Banion Ranches,15775 S Indiana RD,Dos Palos,Merced,93620,,,,,(209) 587-1446,01/01/1936,San Joaquin River Basin,"0085-0060-0009-0000, 0085-0160-0009-0000",0.0,0.0,0.0,0.0,0.0,0.0,0.0,0.0,0.0,0.0,0.0,0.0,0.0,0.0,0.0,0.0,250.0,0.0,250.0,250.0,150.0,0.0,150.0,150.0,Other,1.0,400.0,4058.24,37960.0,26572.0,6424.0,1.0,0.0,,0.0,0.0,0.0,"15775 S Indiana RD, Dos Palos, CA 93620",37.05626,-120.59865
3,3,3,Borges Farms,5148 W Grayson RD,Modesto,Stanislaus,95358,,,,,(209) 538-7810,01/01/1973,Sacramento River Basin,"0017-0059-0006-0000, 0017-0059-0007-0000, 0017-0062-0003-0000",100.0,0.0,100.0,100.0,150.0,0.0,150.0,150.0,0.0,750.0,750.0,750.0,135.0,0.0,135.0,135.0,150.0,0.0,150.0,150.0,100.0,0.0,100.0,100.0,Holstein,60.0,1385.0,23583.99,301164.12,210814.88,48637.81,138704.42,384180.75,3816000.0,3816000.0,0.0,0.0,"5148 W Grayson RD, Modesto, CA 95358",37.5658,-121.08767
4,4,4,Sierra Rose Dairy,9022 Aguas Frias Road,Chico,Butte,95928,,,,,(530) 864-0274,05/01/1953,Sacramento River Basin,0039-0280-0024-0000,75.0,0.0,75.0,75.0,75.0,0.0,75.0,75.0,380.0,0.0,380.0,380.0,50.0,0.0,50.0,50.0,125.0,0.0,125.0,125.0,125.0,0.0,125.0,125.0,Jersey,35.0,830.0,11764.69,147551.12,103285.78,23584.57,64035.41,190420.5,5650000.0,5650000.0,0.0,0.0,"9022 Aguas Frias Road, Chico, CA 95928",39.63197,-121.85899
6,6,6,Tony Lopes Dairy LP,27500 W Bunker RD,Gustine,Merced,95322,,,,,(209) 649-4967,01/01/1972,San Joaquin River Basin,"X070-X010-X012-XXXX, X070-X010-X013-XXXX",300.0,0.0,360.0,310.0,0.0,300.0,360.0,310.0,0.0,2175.0,2400.0,2175.0,350.0,0.0,350.0,350.0,900.0,0.0,1000.0,950.0,900.0,0.0,1000.0,950.0,Holstein,72.0,5045.0,82104.62,1011993.62,708395.53,165904.99,419390.52,1104581.25,46740000.0,46740000.0,0.0,0.0,"27500 W Bunker RD, Gustine, CA 95322",37.17334,-120.98684
7,7,7,Alden Peterson & Sons Inc.,1431 N Central AVE,Turlock,Stanislaus,95380,,,,,(209) 664-0749,01/01/1985,San Joaquin River Basin,X022-X040-X008-XXXX,140.0,0.0,140.0,140.0,0.0,0.0,0.0,0.0,0.0,700.0,700.0,700.0,0.0,95.0,95.0,95.0,210.0,0.0,210.0,210.0,130.0,0.0,130.0,130.0,Holstein,85.0,1275.0,24114.97,307635.4,215344.78,50961.85,140954.96,351440.25,28510500.0,15018000.0,0.0,13492500.0,"1431 N Central AVE, Turlock, CA 95380",37.50553,-120.96076
8,8,8,Sallaberry Ranch,5608 S Morgan RD,Turlock,Stanislaus,95380,,,,,(209) 606-4894,01/01/1970,San Joaquin River Basin,X057-X004-X001-XXXX,0.0,0.0,0.0,0.0,0.0,0.0,0.0,0.0,0.0,0.0,0.0,0.0,0.0,0.0,0.0,0.0,0.0,280.0,280.0,280.0,0.0,160.0,160.0,160.0,Holstein,1.0,440.0,4376.18,41756.0,29229.2,7066.4,1.0,0.0,19140000.0,19140000.0,0.0,0.0,"5608 S Morgan RD, Turlock, CA 95380",37.44016,-120.97421
11,11,11,Kronberg Facility,20777 Riverside AVE,Hilmar,Stanislaus,95324,,,,,(209) 620-4520,01/01/1950,San Joaquin River Basin,"X045-X262-X001-XXXX, X045-X360-X022-XXXX",0.0,0.0,0.0,0.0,0.0,0.0,0.0,0.0,0.0,0.0,0.0,0.0,0.0,0.0,0.0,0.0,0.0,0.0,0.0,0.0,0.0,0.0,0.0,0.0,Holstein,1.0,,1.0,1.0,0.7,1.0,1.0,0.0,0.0,3726000.0,3726000.0,0.0,"20777 Riverside AVE, Hilmar, CA 95324",37.36427,-120.86506
13,13,13,Joe Gomes Dairy,17265 Swanson RD,Delhi,Merced,95315,,,,,(209) 652-7808,01/01/1960,San Joaquin River Basin,X046-X200-X024-XXXX,0.0,0.0,0.0,0.0,0.0,0.0,0.0,0.0,0.0,425.0,425.0,425.0,0.0,1.0,1.0,1.0,0.0,145.0,145.0,145.0,0.0,80.0,80.0,80.0,Holstein,70.0,651.0,13142.07,164071.54,114850.08,27768.17,81391.42,200341.2,2316000.0,2316000.0,0.0,0.0,"17265 Swanson RD, Delhi, CA 95315",37.44083,-120.79977
15,15,15,Pearson and Coupe LLC,11096 Boessow RD,Galt,Sacramento,95632,,,,,(209) 747-4025,01/01/1950,Sacramento River Basin,0150-0071-0025-0000,16.0,0.0,16.0,16.0,13.0,0.0,13.0,13.0,0.0,160.0,160.0,160.0,35.0,0.0,35.0,35.0,38.0,0.0,38.0,38.0,38.0,0.0,38.0,38.0,Holstein,60.0,300.0,5246.81,66287.48,46401.24,10801.52,29590.28,83384.25,,0.0,0.0,0.0,"11096 Boessow RD, Galt, CA 95632",38.25321,-121.27353
16,16,16,"Joe Borba Dairy, INC",3431 S Moffett RD,Turlock,Stanislaus,95380,,,,,(209) 632-5363,01/01/1970,San Joaquin River Basin,"0058-0028-0002-0000, 0058-0028-0023-0000",0.0,0.0,0.0,0.0,0.0,0.0,0.0,0.0,0.0,0.0,0.0,0.0,0.0,0.0,0.0,0.0,0.0,0.0,0.0,0.0,50.0,0.0,50.0,50.0,Holstein,1.0,50.0,506.25,4745.0,3321.5,803.0,1.0,0.0,,0.0,0.0,0.0,"3431 S Moffett RD, Turlock, CA 95380",37.45977,-120.95136
18,18,18,Dutch Door Dairy,3493 BVD RD,Merced,Merced,95341,,,,,(209) 648-2166,01/01/1940,San Joaquin River Basin,X066-X170-X012-XXXX,0.0,0.0,0.0,0.0,0.0,0.0,0.0,0.0,0.0,600.0,620.0,600.0,55.0,0.0,80.0,55.0,0.0,0.0,0.0,0.0,0.0,0.0,0.0,0.0,Holstein,86.0,655.0,17316.98,225996.38,158197.47,38100.24,121212.74,295157.25,6675000.0,6675000.0,0.0,0.0,"3493 BVD RD, Merced, CA 95341",37.29422,-120.49846
22,22,22,Antonio Belo Dairy,25115 Clark Ave.,Orland,Tehama,95963,,,,,(530) 865-1789,01/26/1985,Sacramento River Basin,0091-0200-0001-0000,0.0,0.0,0.0,0.0,0.0,0.0,0.0,0.0,0.0,0.0,0.0,0.0,0.0,0.0,0.0,0.0,0.0,0.0,0.0,0.0,0.0,0.0,0.0,0.0,Other,1.0,,1.0,1.0,0.7,1.0,1.0,0.0,,0.0,0.0,0.0,"25115 Clark Ave., Orland, CA 95963",39.82407,-122.10007
24,24,24,Carlos and Deolinda Lopes Trust,17273 W Cotton Gin RD,Los Banos,Merced,93635,,,,,(209) 704-8163,01/01/1940,San Joaquin River Basin,X088-X180-X053-XXXX,145.0,0.0,150.0,145.0,55.0,0.0,60.0,55.0,0.0,590.0,600.0,590.0,0.0,50.0,55.0,50.0,215.0,0.0,220.0,215.0,195.0,0.0,200.0,195.0,Holstein,70.0,1250.0,20539.5,256128.26,179289.78,42010.72,112990.44,289299.0,6808320.0,6808320.0,0.0,0.0,"17273 W Cotton Gin RD, Los Banos, CA 93635",36.95435,-120.80572
25,25,25,5N Cattle,28470 W Cottonwood RD,Gustine,Merced,95322,,,,,(209) 854-1273,01/01/1990,San Joaquin River Basin,"X063-X250-X033-XXXX, X063-X250-X048-XXXX, X063-X250-X049-XXXX",0.0,0.0,0.0,0.0,0.0,0.0,0.0,0.0,0.0,0.0,0.0,0.0,0.0,0.0,0.0,0.0,0.0,70.0,75.0,70.0,0.0,1130.0,1140.0,1130.0,Holstein,1.0,1200.0,11222.06,113880.0,79716.0,19272.0,1.0,0.0,,0.0,0.0,0.0,"28470 W Cottonwood RD, Gustine, CA 95322",37.18935,-121.00342
26,26,26,Vieira Dairy Farm,9701 Atwater Jordan Road,Atwater,Merced,95301,P.O. Box 516,Atwater,CA,95301,(209) 261-6868,08/14/1998,San Joaquin River Basin,0056-0010-0067-0000,0.0,0.0,0.0,0.0,0.0,0.0,0.0,0.0,0.0,891.0,1150.0,891.0,0.0,99.0,180.0,99.0,0.0,0.0,0.0,0.0,0.0,0.0,0.0,0.0,Holstein,70.0,990.0,24301.93,316891.17,221823.82,52973.96,170634.72,442292.4,27936000.0,27936000.0,0.0,0.0,"9701 Atwater Jordan Road, Atwater, CA 95301",37.331,-120.66221
28,28,28,Van Exel Dairy #3,7406 W Cotta RD,Lodi,San Joaquin,95242,,,,,(209) 334-3292,01/01/1950,San Joaquin River Basin,X025-X100-XX06-XXXX,0.0,0.0,0.0,0.0,0.0,0.0,0.0,0.0,0.0,375.0,375.0,375.0,0.0,0.0,0.0,0.0,0.0,0.0,0.0,0.0,600.0,0.0,600.0,600.0,Holstein,77.0,975.0,15708.65,186735.49,130714.84,31668.32,73540.59,176568.75,17010000.0,17010000.0,0.0,0.0,"7406 W Cotta RD, Lodi, CA 95242",38.13309,-121.40407
31,31,31,"Rodoni Dairy Farms, LP",18037 S Center AVE,Los Banos,Merced,93635,,,,,(209) 826-2732,01/01/1907,San Joaquin River Basin,"X083-X220-X015-XXXX, X083-X220-X022-XXXX",300.0,0.0,300.0,300.0,0.0,350.0,350.0,350.0,0.0,2100.0,2410.0,2100.0,250.0,0.0,350.0,250.0,1000.0,0.0,1000.0,1000.0,500.0,0.0,500.0,500.0,Holstein,80.0,4500.0,77113.37,957711.87,670398.31,157619.77,415966.38,1046272.5,45574500.0,42012000.0,0.0,3562500.0,"18037 S Center AVE, Los Banos, CA 93635",37.02713,-120.8551
32,32,32,A& M de Sousa Dairy,3030 S Central AVE,Turlock,Stanislaus,95380,,,,,(209) 632-5845,01/01/1920,San Joaquin River Basin,"0058-0017-0005-0000, 0058-0017-0006-0000",280.0,0.0,280.0,280.0,25.0,0.0,25.0,25.0,0.0,1200.0,1200.0,1200.0,290.0,0.0,290.0,290.0,210.0,0.0,210.0,210.0,430.0,0.0,430.0,430.0,Jersey-Holstein Cross,80.0,2435.0,43759.88,550116.14,385081.3,89885.76,237695.07,631705.5,94801489.0,94801489.0,0.0,0.0,"3030 S Central AVE, Turlock, CA 95380",37.46523,-120.95795
33,33,33,Fred A Douma Dairy,28524 S Kasson RD,Tracy,San Joaquin,95304,,,,,(209) 904-9327,01/01/1996,San Joaquin River Basin,X241-X380-XX02-XXXX,203.0,0.0,228.0,203.0,0.0,0.0,0.0,0.0,0.0,2772.0,2793.0,2772.0,0.0,404.0,416.0,404.0,222.0,0.0,233.0,222.0,0.0,0.0,0.0,0.0,Holstein,75.0,3601.0,81669.76,1056112.35,739278.65,175329.91,539969.6,1398096.0,55839881.0,55839881.0,0.0,0.0,"28524 S Kasson RD, Tracy, CA 95304",37.69953,-121.30036
34,34,34,Xavier Grow,22368 W 2nd AVE,Stevinson,Merced,95374,P.O. Box 126,Stevinson,CA,95374,(209) 564-1140,10/31/1952,San Joaquin River Basin,X55X-X11X-X63X-XXXX,0.0,0.0,0.0,0.0,0.0,0.0,0.0,0.0,0.0,0.0,0.0,0.0,0.0,0.0,0.0,0.0,0.0,0.0,0.0,0.0,700.0,0.0,700.0,700.0,Other,1.0,700.0,7317.49,66430.0,46501.0,11242.0,1.0,0.0,,0.0,0.0,0.0,"22368 W 2nd AVE, Stevinson, CA 95374",37.33693,-120.89299
35,35,35,Manuel Mendes Dairy (Golden M),29744 Cottonwood RD,Gustine,Merced,95322,,,,,(209) 854-9108,01/01/1950,San Joaquin River Basin,"X063-X250-X008-XXXX, X063-X250-X030-XXXX",0.0,0.0,0.0,0.0,0.0,100.0,120.0,100.0,0.0,600.0,600.0,600.0,0.0,90.0,90.0,90.0,200.0,0.0,200.0,200.0,0.0,0.0,0.0,0.0,Holstein,72.0,990.0,19350.7,243584.41,170509.09,40146.72,115693.94,303205.5,32346000.0,31776000.0,0.0,570000.0,"29744 Cottonwood RD, Gustine, CA 95322",37.18975,-121.02613
36,36,36,Haringa Dairy,14842 E Keyes RD,Denair,Stanislaus,95316,P.O. Box 943,Denair,CA,95316,(209) 874-2250,04/15/1992,San Joaquin River Basin,X019-X041-X043-XXXX,100.0,0.0,146.0,100.0,0.0,0.0,0.0,0.0,0.0,1627.0,1642.0,1627.0,251.0,0.0,292.0,251.0,250.0,0.0,380.0,250.0,175.0,0.0,266.0,175.0,Holstein,75.0,2403.0,51176.94,649396.25,454577.38,107906.23,316930.21,823790.4,85957500.0,85957500.0,0.0,0.0,"14842 E Keyes RD, Denair, CA 95316",37.54633,-120.72474
38,38,38,DeSnayer Dairy,23243 N Rond RD,Lodi,San Joaquin,95242,,,,,(209) 327-6140,01/01/1945,San Joaquin River Basin,X011-X050-XX08-XXXX,275.0,0.0,275.0,275.0,240.0,0.0,240.0,240.0,0.0,1580.0,1580.0,1580.0,0.0,300.0,300.0,300.0,0.0,300.0,300.0,300.0,300.0,0.0,300.0,300.0,Holstein,94.0,2995.0,57384.96,726093.78,508265.65,119131.87,327498.02,812928.0,25560000.0,25560000.0,0.0,0.0,"23243 N Rond RD, Lodi, CA 95242",38.19845,-121.41761
43,43,43,Double Creek Dairy,1320 S Arboleda DR,Merced,Merced,95340,P.O. Box 2128,Merced,CA,95344,(209) 769-2813,01/01/1970,San Joaquin River Basin,0067-0030-0015-0000,564.0,0.0,580.0,560.0,402.0,0.0,450.0,400.0,0.0,1650.0,1680.0,1650.0,175.0,0.0,200.0,175.0,769.0,0.0,800.0,770.0,736.0,0.0,750.0,740.0,Holstein,80.0,4295.0,64996.68,802988.25,562091.78,130274.13,326830.72,817143.75,37423125.0,37423125.0,0.0,0.0,"1320 S Arboleda DR, Merced, CA 95340",37.26969,-120.37048
45,45,45,6-X Dairy,9848 Milnes RD,Modesto,Stanislaus,95357,P.O. Box 12290,Oakdale,CA,95361,(209) 595-6858,01/01/1990,San Joaquin River Basin,X015-X003-X016-XXXX,0.0,0.0,0.0,0.0,0.0,0.0,0.0,0.0,0.0,1650.0,1650.0,1650.0,0.0,225.0,225.0,225.0,0.0,10.0,10.0,10.0,0.0,0.0,0.0,0.0,Other,70.0,1885.0,45624.9,595388.66,416772.06,99264.28,315990.22,828641.25,25056000.0,25056000.0,0.0,0.0,"9848 Milnes RD, Modesto, CA 95357",37.676,-120.81654
47,47,47,Manuel & Jeannette Borges Dairy #2,17463 E Gawne RD,Stockton,San Joaquin,95215,,,,,(209) 838-1828,01/01/1952,Sacramento River Basin,X183-X100-XX16-XXXX,0.0,20.0,20.0,20.0,0.0,50.0,50.0,50.0,270.0,0.0,270.0,270.0,40.0,0.0,40.0,40.0,115.0,0.0,115.0,115.0,115.0,0.0,115.0,115.0,Jersey-Holstein Cross,55.0,610.0,9665.92,117042.06,81929.44,19097.67,49046.64,136327.5,5480000.0,5480000.0,0.0,0.0,"17463 E Gawne RD, Stockton, CA 95215",37.89559,-121.09905
49,49,49,Live Oak Dairy E,8450 S Hwy 33,Gustine,Merced,95322,P.O. Box 1331,Hilmar,CA,95324,(209) 495-8821,01/01/1920,San Joaquin River Basin,X070-X030-X021-XXXX,150.0,0.0,150.0,150.0,0.0,0.0,0.0,0.0,0.0,1000.0,1000.0,1000.0,0.0,200.0,200.0,200.0,375.0,0.0,375.0,375.0,375.0,0.0,375.0,375.0,Jersey,70.0,2100.0,36379.56,450720.1,315504.07,74182.86,191509.23,516840.0,22776000.0,22776000.0,0.0,0.0,"8450 S Hwy 33, Gustine, CA 95322",37.16465,-121.00529
51,51,51,Parkview Dairy,13640 Collier RD,Delhi,Merced,95315,,,,,(559) 909-9571,01/01/1950,San Joaquin River Basin,X046-X240-X050-XXXX,0.0,0.0,0.0,0.0,0.0,0.0,0.0,0.0,0.0,1600.0,1600.0,1550.0,0.0,250.0,250.0,230.0,1000.0,0.0,1000.0,1000.0,400.0,0.0,400.0,400.0,Holstein,87.0,3180.0,60617.09,735107.18,514575.03,123464.86,314151.25,782706.0,47040000.0,47040000.0,0.0,0.0,"13640 Collier RD, Delhi, CA 95315",37.41252,-120.73601
54,54,54,John Zylstra Dairy,3307 S Blaker RD,Turlock,Stanislaus,95380,,,,,(123) 000-0000,01/01/1970,San Joaquin River Basin,"X058-X026-X001-XXXX, X058-X026-X005-XXXX, X058-X026-X006-XXXX, X058-X027-X013-XXXX",15.0,0.0,15.0,15.0,35.0,0.0,35.0,35.0,0.0,250.0,250.0,250.0,20.0,0.0,20.0,20.0,30.0,0.0,30.0,30.0,50.0,0.0,50.0,50.0,Holstein,64.0,400.0,7462.07,95340.33,66738.23,15718.52,46891.81,122311.5,4150800.0,4150800.0,0.0,0.0,"3307 S Blaker RD, Turlock, CA 95380",37.46091,-120.96948
55,55,55,Hendrix Dairy,2901 W Keyes RD,Modesto,Stanislaus,95358,,,,,(209) 485-3375,01/01/1978,San Joaquin River Basin,0017-0053-0005-0000,0.0,0.0,0.0,0.0,0.0,0.0,0.0,0.0,0.0,0.0,0.0,0.0,0.0,0.0,0.0,0.0,0.0,0.0,0.0,0.0,0.0,0.0,0.0,0.0,Other,1.0,,1.0,1.0,0.7,1.0,1.0,0.0,,0.0,0.0,0.0,"2901 W Keyes RD, Modesto, CA 95358",37.55327,-121.04689
57,57,57,CDF Hilmar (Formerly River Rock Ranches LLC),18128 American AVE,Hilmar,Merced,95324,P.O. Box 2717,Merced,CA,95344,(209) 285-0001,01/01/1956,San Joaquin River Basin,X045-X160-X065-XXXX,133.0,0.0,150.0,133.0,0.0,0.0,0.0,0.0,0.0,1244.0,1280.0,1244.0,212.0,0.0,220.0,212.0,393.0,0.0,400.0,393.0,366.0,0.0,400.0,366.0,Jersey,60.0,2348.0,40627.5,515639.56,360947.69,84898.96,230064.4,634486.8,21870000.0,21870000.0,0.0,0.0,"18128 American AVE, Hilmar, CA 95324",37.4115,-120.81573
59,59,59,Dasilva Dairy Farms LLC #3,24197 E Mariposa RD,Escalon,San Joaquin,95320,,,,,(209) 000-0000,04/01/1993,San Joaquin River Basin,X207-X180-X005-XXXX,0.0,0.0,0.0,0.0,0.0,0.0,0.0,0.0,0.0,425.0,425.0,425.0,0.0,0.0,0.0,0.0,0.0,0.0,0.0,0.0,0.0,0.0,0.0,0.0,Holstein,76.0,425.0,11202.98,146449.42,102514.59,24850.05,83066.77,200111.25,16848000.0,16848000.0,0.0,0.0,"24197 E Mariposa RD, Escalon, CA 95320",37.84338,-121.01065
60,60,60,Michael Brasil Dairy #2,4971 Van Clief RD,Stevinson,Merced,95374,,,,,(209) 595-2547,04/01/1935,San Joaquin River Basin,"X055-X008-X005-XXXX, X055-X008-X009-XXXX, X055-X008-X012-XXXX, X055-X008-X030-XXXX",0.0,0.0,0.0,0.0,0.0,0.0,0.0,0.0,0.0,0.0,0.0,0.0,0.0,0.0,0.0,0.0,0.0,0.0,0.0,0.0,0.0,0.0,0.0,0.0,Holstein,1.0,,1.0,1.0,0.7,1.0,1.0,0.0,,0.0,0.0,0.0,"4971 Van Clief RD, Stevinson, CA 95374",37.35993,-120.83265
62,62,62,John Vieira Partnership,22075 Lone Tree RD,Escalon,San Joaquin,95320,,,,,(209) 838-3904,01/01/1960,San Joaquin River Basin,0205-0230-0090-0000,0.0,0.0,0.0,0.0,0.0,0.0,0.0,0.0,0.0,0.0,0.0,0.0,0.0,0.0,0.0,0.0,110.0,0.0,110.0,110.0,70.0,0.0,70.0,70.0,Holstein,1.0,180.0,1723.96,17082.0,11957.4,2890.8,1.0,0.0,,0.0,0.0,0.0,"22075 Lone Tree RD, Escalon, CA 95320",37.83086,-121.0384
63,63,63,P&D Dairy,28209 Husman RD,Gustine,Merced,95322,,,,,(209) 649-4967,01/01/1995,San Joaquin River Basin,X070-X060-X038-XXXX,0.0,0.0,0.0,0.0,0.0,0.0,0.0,0.0,200.0,0.0,250.0,220.0,10.0,0.0,10.0,10.0,35.0,0.0,35.0,35.0,375.0,0.0,375.0,375.0,Holstein,77.0,640.0,7519.41,96202.83,67341.98,16073.39,49027.06,105886.5,46080000.0,46080000.0,0.0,0.0,"28209 Husman RD, Gustine, CA 95322",37.15757,-120.99965
64,64,64,Machado Dairy,7413 S Mitchell RD,Turlock,Stanislaus,95380,,,,,(209) 652-6929,01/01/1970,San Joaquin River Basin,"0057-0007-0005-0000, 0057-0007-0006-0000, 0057-0023-0004-0000",0.0,0.0,0.0,0.0,0.0,50.0,50.0,50.0,0.0,1300.0,1300.0,1300.0,0.0,50.0,50.0,50.0,0.0,40.0,40.0,40.0,0.0,0.0,0.0,0.0,Holstein,80.0,1440.0,36160.75,471418.11,329992.68,79506.64,257502.99,623602.5,37890000.0,17250000.0,0.0,20640000.0,"7413 S Mitchell RD, Turlock, CA 95380",37.42495,-120.94389
65,65,65,Ackerman Dairy Inc,6942 S Central AVE,Ceres,Stanislaus,95307,,,,,(209) 538-9110,01/01/1982,San Joaquin River Basin,"X022-X013-X019-XXXX, X041-X052-X023-XXXX, X041-X052-X024-XXXX",150.0,0.0,150.0,150.0,0.0,150.0,150.0,150.0,0.0,1200.0,1300.0,1200.0,0.0,200.0,310.0,200.0,240.0,240.0,480.0,480.0,0.0,0.0,0.0,0.0,Holstein,63.0,2180.0,38414.5,486948.66,340864.06,79374.23,224292.27,611010.0,15246000.0,15246000.0,0.0,0.0,"6942 S Central AVE, Ceres, CA 95307",37.53743,-120.95646
66,66,66,S.A.S Dairy #2,12712 W. Bradbury RD,Turlock,Stanislaus,95380,P.O. Box 459,Hilmar,CA,95324,(209) 632-2924,01/01/1930,San Joaquin River Basin,X057-X002-X016-XXXX,50.0,0.0,50.0,50.0,95.0,0.0,95.0,95.0,440.0,0.0,440.0,440.0,60.0,0.0,60.0,60.0,55.0,0.0,55.0,55.0,45.0,0.0,45.0,45.0,Holstein,51.0,745.0,12592.91,162588.66,113812.06,26198.87,78771.54,220971.0,,0.0,0.0,0.0,"12712 W. Bradbury RD, Turlock, CA 95380",37.44923,-120.99375
67,67,67,Verissimo Dairy Facility,6125 S Central RD,Turlock,Stanislaus,95380,,,,,(209) 632-6464,01/01/1950,San Joaquin River Basin,X057-X005-X010-XXXX,0.0,0.0,0.0,0.0,0.0,0.0,0.0,0.0,0.0,0.0,0.0,0.0,0.0,63.0,63.0,63.0,0.0,208.0,208.0,208.0,0.0,0.0,0.0,0.0,Holstein,1.0,271.0,3026.48,31236.7,21865.69,4858.15,1.0,14486.85,,0.0,0.0,0.0,"6125 S Central RD, Turlock, CA 95380",37.43095,-120.9678
71,71,71,Furtado Farms Inc.,3449 Paradise RD,Modesto,Stanislaus,95358,,,,,(209) 544-8416,01/01/1950,San Joaquin River Basin,"X007-X010-X007-XXXX, X017-X010-X028-XXXX, X017-X010-X029-XXXX",150.0,0.0,150.0,150.0,230.0,0.0,230.0,230.0,0.0,0.0,0.0,0.0,0.0,0.0,0.0,0.0,12.0,200.0,212.0,212.0,0.0,50.0,50.0,50.0,Holstein,1.0,642.0,3972.39,44281.8,30997.26,5580.85,1.0,0.0,4471500.0,2106000.0,0.0,2365500.0,"3449 Paradise RD, Modesto, CA 95358",37.60953,-121.05723
74,74,74,Mendes Facility,8116 County Road 39,Glenn,Glenn,95943,,,,,(530) 409-1163,01/01/2000,Sacramento River Basin,0019-0040-0022-0009,0.0,0.0,0.0,0.0,0.0,0.0,0.0,0.0,0.0,0.0,0.0,0.0,0.0,25.0,25.0,25.0,0.0,0.0,0.0,0.0,0.0,100.0,100.0,100.0,Other,1.0,125.0,1307.05,14052.5,9836.75,2208.25,15000.0,5748.75,,0.0,0.0,0.0,"8116 County Road 39, Glenn, CA 95943",39.58497,-122.01372
79,79,79,Couco Creek Dairy Inc.,3303 S Washington RD,Turlock,Stanislaus,95380,,,,,(209) 761-9322,06/01/1961,San Joaquin River Basin,"X044-X039-X001-XXXX, X044-X039-X002-XXXX, X044-X040-X041-XXXX",0.0,500.0,500.0,500.0,0.0,0.0,0.0,0.0,0.0,3050.0,3050.0,3050.0,0.0,437.0,437.0,437.0,0.0,750.0,750.0,750.0,0.0,1000.0,1000.0,1000.0,Holstein,75.0,5737.0,104889.66,1317687.32,922381.12,217914.19,594122.39,1536580.65,21105000.0,21105000.0,0.0,0.0,"3303 S Washington RD, Turlock, CA 95380",37.46137,-120.90789
84,84,84,Nunes Heifers,2618 E Reilly RD,Merced,Merced,95340,,,,,(209) 658-6162,01/01/1955,San Joaquin River Basin,X066-X250-X017-XXXX,0.0,0.0,0.0,0.0,0.0,0.0,0.0,0.0,0.0,0.0,0.0,0.0,0.0,0.0,0.0,0.0,130.0,130.0,260.0,260.0,160.0,160.0,320.0,320.0,Holstein,1.0,580.0,5619.59,55042.0,38529.4,9314.8,1.0,0.0,,0.0,0.0,0.0,"2618 E Reilly RD, Merced, CA 95340",37.25826,-120.44054
85,85,85,P&D Dairy North,28366 Husman RD,Gustine,Merced,95322,,,,,(209) 649-4967,01/01/1945,San Joaquin River Basin,X070-X030-X020-XXXX,0.0,0.0,0.0,0.0,0.0,0.0,0.0,0.0,0.0,0.0,0.0,0.0,0.0,378.0,378.0,378.0,400.0,0.0,500.0,450.0,400.0,0.0,500.0,450.0,Holstein,1.0,1278.0,5226.78,47450.0,33215.0,8030.0,1.0,86921.1,27800640.0,27800640.0,0.0,0.0,"28366 Husman RD, Gustine, CA 95322",37.15953,-121.0024
86,86,86,Manuel & Maria Silva Dairy,15420 E Highway 4,Stockton,San Joaquin,95215,,,,,(209) 948-4561,01/15/1945,San Joaquin River Basin,X183-X150-XX01-XXXX,0.0,0.0,0.0,0.0,0.0,0.0,0.0,0.0,0.0,0.0,0.0,0.0,0.0,0.0,0.0,0.0,400.0,0.0,400.0,400.0,0.0,300.0,300.0,300.0,Jersey-Holstein Cross,1.0,700.0,7251.79,66430.0,46501.0,11242.0,1.0,0.0,13200000.0,13200000.0,0.0,0.0,"15420 E Highway 4, Stockton, CA 95215",37.93507,-121.12555
89,89,89,Machado Dairy,7413 S Mitchell RD,Turlock,Stanislaus,95380,,,,,(209) 652-6929,01/01/1970,San Joaquin River Basin,"0057-0007-0005-0000, 0057-0007-0006-0000, 0057-0023-0004-0000",0.0,0.0,0.0,0.0,0.0,50.0,50.0,50.0,0.0,1300.0,1300.0,1300.0,0.0,50.0,50.0,50.0,0.0,40.0,40.0,40.0,0.0,0.0,0.0,0.0,Holstein,80.0,1440.0,36160.75,471418.11,329992.68,79506.64,257502.99,623602.5,37890000.0,17250000.0,0.0,20640000.0,"7413 S Mitchell RD, Turlock, CA 95380",37.42495,-120.94389
90,90,90,Joe Vitoria Dairy,13340 Sargent AVE,Galt,Sacramento,95632,,,,,(209) 744-9532,04/01/2004,Sacramento River Basin,X148-0112-X013-XXXX,50.0,0.0,50.0,50.0,50.0,0.0,50.0,50.0,0.0,260.0,260.0,260.0,0.0,30.0,30.0,30.0,0.0,80.0,80.0,80.0,70.0,0.0,70.0,70.0,Holstein,55.0,540.0,6369.34,79525.82,55668.07,12866.19,35422.57,129319.5,5670000.0,5670000.0,0.0,0.0,"13340 Sargent AVE, Galt, CA 95632",38.27067,-121.32969
91,91,91,B & J Dairy,9950 Arno RD,Galt,Sacramento,95632,,,,,(209) 745-2520,01/01/1958,Sacramento River Basin,X148-X020-X035-XXXX,0.0,130.0,130.0,130.0,0.0,100.0,100.0,100.0,0.0,630.0,630.0,630.0,0.0,45.0,45.0,45.0,0.0,300.0,300.0,300.0,500.0,0.0,500.0,500.0,Holstein,63.0,1705.0,25046.94,300407.99,210285.59,49288.93,117753.44,306983.25,16128000.0,16128000.0,0.0,0.0,"9950 Arno RD, Galt, CA 95632",38.32441,-121.32512
92,92,92,Trinkler Heifer,12337 Clausen RD,Crows Landing,Stanislaus,95313,P.O. Box 10,Ceres,CA,95307,(209) 537-9883,01/01/1950,San Joaquin River Basin,X058-X024-X002-XXXX,385.0,0.0,950.0,385.0,0.0,0.0,0.0,0.0,0.0,0.0,0.0,0.0,0.0,0.0,0.0,0.0,750.0,0.0,1450.0,750.0,825.0,0.0,1450.0,825.0,Holstein,1.0,1960.0,16222.54,169141.0,118398.7,26685.7,1.0,0.0,44114400.0,44114400.0,0.0,0.0,"12337 Clausen RD, Crows Landing, CA 95313",37.45956,-120.99065
97,97,97,Broder Farms,22245 August AVE,Hillmar,Merced,95324,P.O. Box 880,Hilmar,CA,95324,(209) 667-7050,01/01/1949,San Joaquin River Basin,X045-X180-X021-XXXX,0.0,0.0,0.0,0.0,0.0,0.0,0.0,0.0,0.0,0.0,0.0,0.0,0.0,0.0,0.0,0.0,0.0,0.0,0.0,0.0,0.0,0.0,0.0,0.0,Jersey,1.0,,1.0,1.0,0.7,1.0,1.0,0.0,0.0,11247000.0,11247000.0,0.0,"22245 August AVE, Hillmar, CA 95324",37.4189,-120.89085
98,98,98,M. & M. Moules Dairy,12951 E Harney LN,Lodi,San Joaquin,95240,,,,,(209) 333-1976,03/01/1993,San Joaquin River Basin,X063-X250-XX10-XXXX,0.0,0.0,0.0,0.0,0.0,0.0,0.0,0.0,0.0,0.0,0.0,0.0,0.0,0.0,0.0,0.0,0.0,0.0,0.0,0.0,0.0,9.0,9.0,9.0,Jersey-Holstein Cross,1.0,9.0,86.69,854.1,597.87,144.54,1.0,0.0,1264800.0,1264800.0,0.0,0.0,"12951 E Harney LN, Lodi, CA 95240",38.10294,-121.15642
99,99,99,DS Farms LP,24567 E Lone Tree RD,Escalon,San Joaquin,95320,,,,,(209) 000-0000,01/01/1945,San Joaquin River Basin,"X207-X350-X100-XXXX, X229-X060-X010-XXXX",0.0,0.0,0.0,0.0,0.0,0.0,0.0,0.0,0.0,834.0,834.0,834.0,0.0,0.0,0.0,0.0,0.0,50.0,50.0,50.0,0.0,0.0,0.0,0.0,Holstein,75.0,884.0,22408.41,290850.7,203595.49,49332.26,162458.39,392688.9,18840000.0,18840000.0,0.0,0.0,"24567 E Lone Tree RD, Escalon, CA 95320",37.82778,-121.00805
100,100,100,Eddie Silveira Family Dairy,12081 S Cherokee RD,Gustine,Merced,95322,,,,,(123) 000-0000,01/01/1910,San Joaquin River Basin,X070-X090-X033-XXXX,250.0,0.0,250.0,250.0,0.0,0.0,0.0,0.0,0.0,2200.0,2200.0,2200.0,0.0,300.0,300.0,300.0,650.0,0.0,650.0,650.0,650.0,0.0,650.0,650.0,Holstein,83.0,4050.0,77689.11,972616.78,680831.75,161988.96,440110.5,1104855.0,72072000.0,72072000.0,0.0,0.0,"12081 S Cherokee RD, Gustine, CA 95322",37.12157,-120.97736
102,102,102,A& M de Sousa Dairy,3030 S Central AVE,Turlock,Stanislaus,95380,,,,,(209) 632-5845,01/01/1920,San Joaquin River Basin,"0058-0017-0005-0000, 0058-0017-0006-0000",280.0,0.0,280.0,280.0,25.0,0.0,25.0,25.0,0.0,1200.0,1200.0,1200.0,290.0,0.0,290.0,290.0,210.0,0.0,210.0,210.0,430.0,0.0,430.0,430.0,Jersey-Holstein Cross,80.0,2435.0,43759.88,550116.14,385081.3,89885.76,237695.07,631705.5,94801489.0,94801489.0,0.0,0.0,"3030 S Central AVE, Turlock, CA 95380",37.46523,-120.95795
103,103,103,Vierra Dairy Farms,23160 W Williams AVE,Hilmar,Merced,95324,,,,,(209) 668-0343,10/01/1967,San Joaquin River Basin,"X045-X190-X015-XXXX, X045-X190-X017-XXXX, X045-X190-X052-XXXX, X045-X190-X063-XXXX, X045-X190-X077-XXXX",403.0,0.0,403.0,403.0,0.0,353.0,353.0,353.0,0.0,3000.0,3000.0,3000.0,0.0,200.0,200.0,200.0,211.0,0.0,211.0,211.0,834.0,0.0,834.0,834.0,Jersey-Holstein Cross,70.0,5001.0,91849.76,1180442.4,826309.68,194666.01,574527.68,1458540.0,50475000.0,50475000.0,0.0,0.0,"23160 W Williams AVE, Hilmar, CA 95324",37.39102,-120.90597
111,111,111,Lockwood III Dairy,15343 Tim Bell RD,Waterford,Stanislaus,95386,P.O. Box 235,Waterford,CA,95386,(209) 874-9855,03/15/1974,San Joaquin River Basin,0015-0015-0085-0000,50.0,0.0,50.0,50.0,0.0,0.0,0.0,0.0,0.0,485.0,485.0,485.0,65.0,0.0,65.0,65.0,175.0,0.0,175.0,175.0,195.0,0.0,195.0,195.0,Holstein,80.0,970.0,17997.96,219631.98,153742.39,36594.38,96068.42,243309.0,3809150.0,2559150.0,0.0,1250000.0,"15343 Tim Bell RD, Waterford, CA 95386",37.67387,-120.70754
112,112,112,Vitorino Dairy (Caetano Dairy Facility),9436 Griffith AVE,Delhi,Merced,95315,,,,,(209) 632-4162,01/01/1962,San Joaquin River Basin,X046-X120-X001-XXXX,0.0,210.0,210.0,210.0,0.0,0.0,0.0,0.0,0.0,640.0,640.0,640.0,0.0,55.0,55.0,55.0,0.0,0.0,0.0,0.0,0.0,0.0,0.0,0.0,Jersey-Holstein Cross,72.0,905.0,18066.73,237375.87,166163.11,38782.74,123406.87,313991.25,6138500.0,23531750.0,17393250.0,0.0,"9436 Griffith AVE, Delhi, CA 95315",37.42534,-120.81286
114,114,114,Rocking S Dairy #2,2330 Ladd RD,Modesto,Stanislaus,95356,,,,,(123) 000-0000,01/01/1983,San Joaquin River Basin,X003-X022-X018-XXXX,435.0,0.0,450.0,435.0,610.0,0.0,610.0,610.0,0.0,1550.0,1600.0,1550.0,0.0,320.0,380.0,320.0,135.0,0.0,150.0,135.0,0.0,0.0,0.0,0.0,Holstein,80.0,3050.0,51386.58,668234.28,467764.0,106031.9,307022.8,803401.5,50159000.0,50159000.0,0.0,0.0,"2330 Ladd RD, Modesto, CA 95356",37.73046,-121.03839
116,116,116,Frank Chaves and Sons #2,12021 E Harney LN,Lodi,San Joaquin,95240,,,,,(209) 368-1740,01/05/1940,San Joaquin River Basin,X063-X250-XX16-XXXX,50.0,0.0,50.0,50.0,0.0,0.0,0.0,0.0,0.0,217.0,217.0,217.0,0.0,0.0,0.0,0.0,20.0,0.0,20.0,20.0,0.0,0.0,0.0,0.0,Holstein,51.0,287.0,5461.99,70903.9,49632.73,11659.38,38848.69,102174.45,6120000.0,6120000.0,0.0,0.0,"12021 E Harney LN, Lodi, CA 95240",38.10554,-121.16752
117,117,117,Oslo Dairy,20334 W Oslo RD,Hilmar,Merced,95324,P.O. Box 1331,Hilmar,CA,95324,(209) 656-8434,03/01/1971,San Joaquin River Basin,0045-0140-0028-0000,0.0,0.0,0.0,0.0,0.0,0.0,0.0,0.0,0.0,0.0,0.0,0.0,0.0,0.0,0.0,0.0,0.0,0.0,0.0,0.0,0.0,0.0,0.0,0.0,Jersey,1.0,,1.0,1.0,0.7,1.0,1.0,0.0,0.0,6637500.0,6637500.0,0.0,"20334 W Oslo RD, Hilmar, CA 95324",37.42805,-120.8567
118,118,118,Willem Postma Dairy #1,3700 Claus RD,Modesto,Stanislaus,95357,,,,,(209) 551-2930,01/01/1962,San Joaquin River Basin,X014-X013-X003-XXXX,420.0,0.0,420.0,420.0,140.0,0.0,140.0,140.0,0.0,990.0,990.0,990.0,0.0,160.0,160.0,160.0,750.0,0.0,750.0,750.0,950.0,0.0,950.0,950.0,Holstein,74.0,3410.0,46915.28,557248.76,390074.13,90507.31,192195.85,502933.5,21254500.0,20991700.0,0.0,262800.0,"3700 Claus RD, Modesto, CA 95357",37.69264,-120.91222
119,119,119,Vierra Dairy Farms #4,7965 Washington RD,Hilmar,Merced,95324,P.O. Box 666,Hilmar,CA,95324,(209) 668-0343,01/01/1880,San Joaquin River Basin,XX45-X190-XX67-XXXX,0.0,0.0,0.0,0.0,0.0,0.0,0.0,0.0,0.0,768.0,768.0,768.0,0.0,19.0,19.0,19.0,105.0,0.0,105.0,105.0,0.0,0.0,0.0,0.0,Holstein,72.0,892.0,21295.25,273360.85,191352.6,46182.76,148088.24,365981.85,5508000.0,5508000.0,0.0,0.0,"7965 Washington RD, Hilmar, CA 95324",37.40408,-120.90567
121,121,121,"Wyeth Dairy, Inc.",7319 Beckwith RD,Modesto,Stanislaus,95358,,,,,(209) 545-0891,01/01/1960,San Joaquin River Basin,"0012-0018-0006-0000, 0012-0018-0015-0000",0.0,0.0,0.0,0.0,0.0,0.0,0.0,0.0,0.0,570.0,570.0,570.0,0.0,85.0,85.0,85.0,0.0,160.0,160.0,160.0,0.0,160.0,160.0,160.0,Holstein,89.0,975.0,20487.17,253665.36,177565.75,42605.85,116275.57,287930.25,21930000.0,21930000.0,0.0,0.0,"7319 Beckwith RD, Modesto, CA 95358",37.68148,-121.12863
122,122,122,Germano Soares dba Sandy Mush Crosses,5241 W Sandy Mush RD,Merced,Merced,95340,,,,,(209) 000-0000,07/01/1963,San Joaquin River Basin,X074-X080-X025-XXXX,70.0,0.0,70.0,70.0,100.0,0.0,100.0,100.0,0.0,750.0,750.0,750.0,85.0,0.0,85.0,85.0,70.0,0.0,70.0,70.0,80.0,0.0,80.0,80.0,Jersey,60.0,1155.0,21441.83,278461.12,194922.78,45538.23,138704.42,372683.25,6660000.0,6660000.0,0.0,0.0,"5241 W Sandy Mush RD, Merced, CA 95340",37.18556,-120.58605
123,123,123,Double B Dairy #2,3645 W Bradshaw RD,Atwater,Merced,95301,,,,,(209) 564-8218,01/01/1920,San Joaquin River Basin,"X005-X090-X015-XXXX, X005-X090-X023-XXXX",0.0,146.0,146.0,146.0,0.0,125.0,125.0,125.0,0.0,765.0,765.0,765.0,0.0,90.0,90.0,90.0,0.0,382.0,382.0,382.0,0.0,278.0,278.0,278.0,Other,78.0,1786.0,29027.31,358863.77,251204.64,58908.73,150525.4,380895.75,10632000.0,10632000.0,0.0,0.0,"3645 W Bradshaw RD, Atwater, CA 95301",37.35669,-120.55218
127,127,127,Double D Taylor (former Germano Soares Dairy #2),2506 E Taylor RD,Ceres,Stanislaus,95307,,,,,(209) 542-0281,06/01/2000,San Joaquin River Basin,X022-X013-X010-XXXX,0.0,0.0,0.0,0.0,0.0,0.0,0.0,0.0,0.0,0.0,0.0,0.0,0.0,0.0,0.0,0.0,0.0,0.0,0.0,0.0,0.0,0.0,0.0,0.0,Holstein,1.0,,1.0,1.0,0.7,1.0,1.0,0.0,2250000.0,2250000.0,0.0,0.0,"2506 E Taylor RD, Ceres, CA 95307",37.53281,-120.95073
128,128,128,Vierra Dairy Farms #3,7884 Faith Home RD,Hilmar,Merced,95324,P.O. Box 1350,Hilmar,CA,95324,(209) 668-0343,01/01/1940,San Joaquin River Basin,X045-X190-X001-XXXX,355.0,0.0,355.0,355.0,0.0,0.0,0.0,0.0,0.0,281.0,281.0,281.0,0.0,0.0,0.0,0.0,0.0,0.0,0.0,0.0,0.0,0.0,0.0,0.0,Holstein,72.0,636.0,8505.39,113244.67,79271.27,17395.93,54183.33,132308.85,7536000.0,7536000.0,0.0,0.0,"7884 Faith Home RD, Hilmar, CA 95324",37.40308,-120.9225
129,129,129,"Gold Medal Ag, LLC #2",20326 Johnson AVE,Hilmar,Merced,95324,P.O. Box 1210,Hilmar,CA,95324,(209) 652-4066,01/01/1970,San Joaquin River Basin,0045-0100-0060-0000,0.0,0.0,0.0,0.0,0.0,0.0,0.0,0.0,0.0,400.0,400.0,400.0,50.0,0.0,50.0,50.0,0.0,0.0,0.0,0.0,0.0,0.0,0.0,0.0,Jersey,60.0,450.0,10428.48,137139.2,95997.44,22787.05,73975.69,199837.5,4382500.0,3157000.0,0.0,1225500.0,"20326 Johnson AVE, Hilmar, CA 95324",37.43341,-120.853
131,131,131,Manuel & Maria Silva Dairy #2,2800 White RD,Turlock,Stanislaus,95380,,,,,(209) 564-7297,01/01/1970,San Joaquin River Basin,"X045-X100-X006-XXXX, X057-X019-X004-XXXX",110.0,0.0,110.0,110.0,100.0,0.0,100.0,100.0,0.0,920.0,920.0,920.0,0.0,155.0,155.0,155.0,0.0,0.0,0.0,0.0,0.0,0.0,0.0,0.0,Jersey-Holstein Cross,59.0,1285.0,25366.13,332039.46,232427.62,53873.08,169539.65,468824.25,11385000.0,11385000.0,0.0,0.0,"2800 White RD, Turlock, CA 95380",37.44122,-120.87998
134,134,134,"G. Simoes Dairy, Inc.",11758 Carroll RD,Elk Grove,Sacramento,95757,,,,,(916) 826-2495,01/01/1976,Sacramento River Basin,X132-X240-X051-XXXX,0.0,0.0,0.0,0.0,0.0,0.0,0.0,0.0,0.0,0.0,0.0,0.0,0.0,0.0,0.0,0.0,350.0,0.0,350.0,350.0,600.0,0.0,600.0,600.0,Holstein,1.0,950.0,9438.13,90155.0,63108.5,15257.0,1.0,0.0,720000.0,720000.0,0.0,0.0,"11758 Carroll RD, Elk Grove, CA 95757",38.32865,-121.39938
135,135,135,P&D West Dairy,29631 Husman RD,Gustine,Merced,95322,,,,,(209) 649-4967,01/01/1930,San Joaquin River Basin,X070-X060-X043-XXXX,0.0,0.0,0.0,0.0,0.0,0.0,0.0,0.0,0.0,475.0,475.0,475.0,0.0,0.0,0.0,0.0,0.0,0.0,0.0,0.0,0.0,0.0,0.0,0.0,Holstein,68.0,475.0,11876.32,151539.47,106077.63,25295.92,76078.09,223653.75,36360000.0,36360000.0,0.0,0.0,"29631 Husman RD, Gustine, CA 95322",37.156,-121.0252
138,138,138,Manuel Martins Dairy L.P.,10043 Milnes,Modesto,Stanislaus,95307,,,,,(209) 529-8133,09/09/1978,San Joaquin River Basin,X015-X001-X020-XXXX,0.0,135.0,135.0,135.0,0.0,85.0,85.0,85.0,0.0,820.0,820.0,820.0,0.0,100.0,100.0,100.0,25.0,0.0,25.0,25.0,0.0,0.0,0.0,0.0,Holstein,68.0,1165.0,23325.82,304359.67,213051.77,49700.58,155960.09,409092.0,12234000.0,10764000.0,0.0,1470000.0,"10043 Milnes, Modesto, CA 95307",37.68258,-120.81041
141,141,141,N & C Silveira Dairy,6025 Hultberg RD,Turlock,Stanislaus,95380,,,,,(209) 668-2728,01/01/1970,San Joaquin River Basin,X057-X170-X006-XXXX,0.0,30.0,30.0,30.0,0.0,0.0,0.0,0.0,0.0,832.0,832.0,832.0,0.0,29.0,29.0,29.0,0.0,20.0,20.0,20.0,0.0,0.0,0.0,0.0,Jersey,60.0,911.0,21043.3,274993.04,192495.13,46019.93,153869.44,398415.75,8502890.0,6450000.0,0.0,2052890.0,"6025 Hultberg RD, Turlock, CA 95380",37.43532,-120.89702
143,143,143,6D Dores Dairy,25762 Turner AVE,Hilmar,Merced,95324,P.O. Box 56,Stevinson,CA,95374,(209) 632-6402,01/01/1925,San Joaquin River Basin,X045-X080-X001-XXXX,0.0,0.0,0.0,0.0,0.0,0.0,0.0,0.0,0.0,845.0,845.0,845.0,0.0,62.0,62.0,62.0,0.0,155.0,155.0,155.0,0.0,183.0,183.0,183.0,Holstein,73.0,1245.0,26187.9,330677.24,231474.07,55614.37,163490.79,412125.15,25970000.0,25970000.0,0.0,0.0,"25762 Turner AVE, Hilmar, CA 95324",37.37417,-120.95493
144,144,144,Rafael Pacheco Dairy,22884 W Ingomar Grade RD,Los Banos,Merced,93635,,,,,(209) 827-6877,01/01/1935,San Joaquin River Basin,X081-X060-X060-XXXX,90.0,0.0,90.0,90.0,88.0,0.0,88.0,88.0,0.0,738.0,738.0,738.0,162.0,0.0,162.0,162.0,198.0,0.0,198.0,198.0,195.0,0.0,195.0,195.0,Holstein,70.0,1471.0,25928.08,323467.01,226426.91,52759.4,141333.81,384739.2,12240000.0,12240000.0,0.0,0.0,"22884 W Ingomar Grade RD, Los Banos, CA 93635",37.09397,-120.90335
149,149,149,Live Oak Dairy,21052 Johnson AVE,Hilmar,Merced,95324,P.O. Box 1331,Hilmar,CA,95324,(209) 495-8821,01/01/1950,San Joaquin River Basin,0045-0100-0011-0000,0.0,0.0,0.0,0.0,0.0,0.0,0.0,0.0,0.0,425.0,425.0,425.0,50.0,0.0,50.0,50.0,50.0,0.0,50.0,50.0,0.0,0.0,0.0,0.0,Jersey,50.0,525.0,11015.93,143363.63,100354.54,23739.85,75806.92,211608.75,10272000.0,10272000.0,0.0,0.0,"21052 Johnson AVE, Hilmar, CA 95324",37.43378,-120.8689
150,150,150,Vander Woude Dairy,1550 W Rahilly RD,Merced,Merced,95341,,,,,(209) 384-1784,01/01/1999,San Joaquin River Basin,X065-X110-X024-XXXX,344.0,0.0,344.0,344.0,142.0,0.0,344.0,142.0,0.0,3166.0,3240.0,3166.0,0.0,415.0,440.0,415.0,1594.0,0.0,1845.0,1594.0,1344.0,0.0,1416.0,1344.0,Holstein,80.0,7005.0,122114.0,1489782.7,1042847.89,247629.12,627118.83,1586140.35,123083000.0,123083000.0,0.0,0.0,"1550 W Rahilly RD, Merced, CA 95341",37.21513,-120.5158
154,154,154,Anchor J Dairy,24507 W First ST,Stevinson,Merced,95374,,,,,(209) 634-4908,03/01/1993,San Joaquin River Basin,"X055-X010-X007-XXXX, X055-X030-X006-XXXX, X055-X030-X015-XXXX, X055-X030-X016-XXXX, X055-X030-X044-XXXX",465.0,0.0,465.0,465.0,637.0,0.0,637.0,637.0,0.0,2600.0,2600.0,2600.0,400.0,0.0,400.0,400.0,830.0,0.0,830.0,830.0,1155.0,0.0,1155.0,1155.0,Holstein,75.0,6087.0,97343.12,1209624.94,846737.46,196787.43,506464.99,1316190.0,21400751.0,40854748.0,19453997.0,0.0,"24507 W First ST, Stevinson, CA 95374",37.34188,-120.93317
155,155,155,Roest Family Dairy,2472 Gates RD,Modesto,Stanislaus,95358,,,,,(209) 648-3930,01/01/1970,San Joaquin River Basin,X012-X025-X013-XXXX,131.0,0.0,131.0,131.0,0.0,0.0,0.0,0.0,0.0,1025.0,1025.0,1025.0,0.0,0.0,0.0,0.0,318.0,0.0,318.0,318.0,268.0,0.0,268.0,268.0,Holstein,71.0,1742.0,32966.25,407642.92,285350.04,68371.01,196970.38,482621.25,7266000.0,7266000.0,0.0,0.0,"2472 Gates RD, Modesto, CA 95358",37.67254,-121.15629
158,158,158,Luis Azevedo Dairy,11412 W Main,Turlock,Stanislaus,95380,,,,,(209) 216-7785,01/01/1930,San Joaquin River Basin,0132-0465-0789-0000,200.0,0.0,300.0,200.0,250.0,0.0,250.0,250.0,0.0,800.0,800.0,800.0,120.0,0.0,120.0,120.0,200.0,0.0,200.0,200.0,300.0,0.0,300.0,300.0,Holstein,65.0,1870.0,28556.46,354511.24,248157.87,56840.56,150579.38,404274.0,27180000.0,27180000.0,0.0,0.0,"11412 W Main, Turlock, CA 95380",37.49275,-120.97682
159,159,159,Double Cross #7 (Formerly Larry B. Peterson Dairy Farms #2),20775 W American AVE,Hilmar,Merced,95324,,,,,(209) 668-0867,01/01/1979,San Joaquin River Basin,X045-X170-X030-XXXX,0.0,0.0,0.0,0.0,0.0,0.0,0.0,0.0,0.0,0.0,0.0,0.0,0.0,208.0,208.0,208.0,0.0,0.0,0.0,0.0,0.0,0.0,0.0,0.0,Jersey,1.0,208.0,2663.19,37960.0,26572.0,5010.72,1.0,47829.6,2985000.0,2985000.0,0.0,0.0,"20775 W American AVE, Hilmar, CA 95324",37.41109,-120.86414
160,160,160,Pepper Dairy,13942 N Pepper ST,Turlock,Merced,95380,P.O. Box 3639,Turlock,CA,95381,(209) 632-7291,01/01/1970,San Joaquin River Basin,0041-0110-0011-0000,0.0,0.0,0.0,0.0,0.0,0.0,0.0,0.0,0.0,0.0,0.0,0.0,5.0,0.0,5.0,5.0,0.0,0.0,0.0,0.0,0.0,0.0,0.0,0.0,Holstein,1.0,5.0,64.02,912.5,638.75,120.45,1.0,1149.75,,0.0,0.0,0.0,"13942 N Pepper ST, Turlock, CA 95380",37.49014,-120.71921
161,161,161,Ulys Dairy,8118 Sikes RD,Dixon,Solano,95620,,,,,(209) 595-1201,01/01/1983,Sacramento River Basin,0111-X110-X070-XXXX,78.0,0.0,78.0,78.0,78.0,0.0,78.0,78.0,0.0,950.0,950.0,950.0,0.0,134.0,134.0,134.0,350.0,0.0,350.0,350.0,210.0,0.0,210.0,210.0,Holstein,76.0,1800.0,33187.74,412928.12,289049.68,68332.53,185678.67,478120.8,30282000.0,30282000.0,0.0,0.0,"8118 Sikes RD, Dixon, CA 95620",38.46334,-121.74431
163,163,163,Teresi Farms (formerly Triple J),7575 N Live Oak RD,Lodi,San Joaquin,95240,,,,,(209) 430-0163,01/01/1940,San Joaquin River Basin,X061-X160-XX22-XXXX,0.0,0.0,0.0,0.0,0.0,0.0,0.0,0.0,0.0,0.0,0.0,0.0,0.0,0.0,0.0,0.0,20.0,0.0,20.0,20.0,15.0,0.0,15.0,15.0,Holstein,1.0,35.0,347.81,3321.5,2325.05,562.1,1.0,0.0,,0.0,0.0,0.0,"7575 N Live Oak RD, Lodi, CA 95240",38.08182,-121.22273
167,167,167,Live Oak Dairy G,730 Bystrum RD,Turlock,Stanislaus,95380,P.O. Box 1331,Hilmar,CA,95324,(209) 495-8821,01/01/1950,San Joaquin River Basin,"0057-0025-0012-0000, X022-X038-X009-XXXX, X045-X030-X018-XXXX",0.0,0.0,0.0,0.0,0.0,0.0,0.0,0.0,0.0,1200.0,1230.0,1200.0,150.0,0.0,150.0,150.0,100.0,0.0,100.0,100.0,0.0,0.0,0.0,0.0,Jersey,50.0,1450.0,30273.29,402494.08,281745.86,66581.42,214043.07,599512.5,15465000.0,14625000.0,0.0,840000.0,"730 Bystrum RD, Turlock, CA 95380",37.49989,-120.98363
168,168,168,Avis Dairy,4400 Pt. Pleasant RD,Elk Grove,Sacramento,95757,,,,,(209) 603-6107,01/01/1950,Sacramento River Basin,X132-X332-X053-XXXX,0.0,0.0,0.0,0.0,0.0,0.0,0.0,0.0,0.0,0.0,0.0,0.0,0.0,0.0,0.0,0.0,0.0,0.0,0.0,0.0,50.0,0.0,50.0,50.0,Jersey-Holstein Cross,1.0,50.0,481.62,4745.0,3321.5,803.0,1.0,0.0,,0.0,0.0,0.0,"4400 Pt. Pleasant RD, Elk Grove, CA 95757",38.33436,-121.45232
169,169,169,Castelanelli Brothers Dairy,401 W. Armstrong RD,Lodi,San Joaquin,95242,,,,,(209) 747-7727,05/25/1928,San Joaquin River Basin,"X058-X060-XX32-XXXX, X058-X060-XX35-XXXX",0.0,0.0,0.0,0.0,0.0,0.0,0.0,0.0,0.0,0.0,0.0,0.0,0.0,0.0,0.0,0.0,0.0,0.0,0.0,0.0,0.0,0.0,0.0,0.0,Holstein,1.0,,1.0,1.0,0.7,1.0,1.0,0.0,,0.0,0.0,0.0,"401 W. Armstrong RD, Lodi, CA 95242",38.09022,-121.32221
170,170,170,Red Rock Dairy,5020 S Highway 59,Merced,Merced,95340,,,,,(209) 769-2220,12/01/2009,San Joaquin River Basin,X066-X021-X010-XXXX,0.0,475.0,500.0,475.0,0.0,0.0,0.0,0.0,0.0,2719.0,2726.0,2719.0,0.0,291.0,300.0,291.0,0.0,842.0,901.0,842.0,0.0,653.0,688.0,653.0,Holstein,82.0,4980.0,94870.96,1181220.35,826854.25,196321.06,542150.18,1347156.6,172494000.0,172494000.0,0.0,0.0,"5020 S Highway 59, Merced, CA 95340",37.21432,-120.4879
172,172,172,Nelson Dairy,19481 Geer AVE,Hilmar,Merced,95324,,,,,(209) 668-4600,01/01/1948,San Joaquin River Basin,X045-X210-X016-XXXX,0.0,0.0,0.0,0.0,0.0,0.0,0.0,0.0,0.0,0.0,0.0,0.0,0.0,0.0,0.0,0.0,0.0,65.0,65.0,65.0,0.0,150.0,150.0,150.0,Holstein,1.0,215.0,2102.97,20403.5,14282.45,3452.9,1.0,0.0,660000.0,660000.0,0.0,0.0,"19481 Geer AVE, Hilmar, CA 95324",37.39507,-120.83884
173,173,173,Carlos C. Lourenco Dairy,6557 Oak AVE,Merced,Merced,95340,,,,,(209) 495-8654,10/01/1995,San Joaquin River Basin,0056-0200-0018-0000,0.0,230.0,235.0,230.0,0.0,0.0,0.0,0.0,0.0,1085.0,1098.0,1085.0,0.0,148.0,156.0,148.0,0.0,305.0,315.0,305.0,0.0,270.0,275.0,270.0,Holstein,68.0,2038.0,36324.59,453888.13,317721.69,74622.62,206361.82,544904.85,42099600.0,42099600.0,0.0,0.0,"6557 Oak AVE, Merced, CA 95340",37.28009,-120.60779
175,175,175,Twin Star Dairy,6480 W Bailey AVE,Atwater,Merced,95301,P.O. Box 3089,Turlock,CA,95381,(209) 652-4395,01/01/2001,San Joaquin River Basin,0056-0150-0047-0000,101.0,0.0,125.0,125.0,0.0,3.0,6.0,6.0,0.0,821.0,825.0,822.0,0.0,113.0,115.0,114.0,350.0,0.0,350.0,350.0,360.0,0.0,405.0,405.0,Jersey,60.0,1822.0,29138.37,362217.78,253552.45,59697.08,152020.04,413253.0,20598575.0,0.0,0.0,20598575.0,"6480 W Bailey AVE, Atwater, CA 95301",37.28961,-120.60363
176,176,176,Sousa Family Dairy,12801 W Bradbury RD,Turlock,Stanislaus,95380,,,,,(209) 595-6452,01/01/1940,San Joaquin River Basin,"0058-0023-0015-0000, 0058-0024-0008-0000",0.0,0.0,0.0,0.0,0.0,0.0,0.0,0.0,0.0,699.0,699.0,699.0,0.0,0.0,0.0,0.0,200.0,0.0,200.0,200.0,50.0,0.0,50.0,50.0,Holstein,88.0,949.0,21980.16,277462.27,194223.59,47252.65,142131.32,329124.15,23004077.0,23004077.0,0.0,0.0,"12801 W Bradbury RD, Turlock, CA 95380",37.45226,-120.99474
177,177,177,John Brasil Dairy #1,2613 S Mitchell RD,Turlock,Stanislaus,95380,,,,,(209) 632-7867,10/01/1940,San Joaquin River Basin,"X044-X020-X031-XXXX, X058-X016-X004-XXXX, X058-X150-X006-XXXX, X058-X160-X004-XXXX, X058-X160-X011-XXXX, X058-X290-X014-XXXX, X058-X290-X023-XXXX",275.0,0.0,275.0,275.0,0.0,0.0,0.0,0.0,0.0,1157.0,1157.0,1157.0,135.0,0.0,135.0,135.0,500.0,0.0,500.0,500.0,480.0,0.0,480.0,480.0,Holstein,75.0,2547.0,42600.21,528603.63,370022.54,87308.83,225376.92,575816.7,13381350.0,17323350.0,3942000.0,0.0,"2613 S Mitchell RD, Turlock, CA 95380",37.46909,-120.94233
178,178,178,Silva Brothers Dairy #2,25723 N Elliott RD,Galt,San Joaquin,95632,,,,,(209) 334-2914,01/01/1950,San Joaquin River Basin,X007-X130-XX20-XXXX,0.0,0.0,0.0,0.0,0.0,0.0,0.0,0.0,0.0,170.0,170.0,170.0,0.0,10.0,10.0,10.0,0.0,0.0,0.0,0.0,0.0,0.0,0.0,0.0,Jersey-Holstein Cross,62.0,180.0,4342.26,56752.75,39726.93,9509.41,31663.05,82344.0,3843750.0,3843750.0,0.0,0.0,"25723 N Elliott RD, Galt, CA 95632",38.22165,-121.17148
179,179,179,"River Rock Ranch, LLC",22846 Second AVE,Stevinson,Merced,95374,P.O. Box 1090,Hilmar,CA,95324,(209) 285-0001,01/01/1955,San Joaquin River Basin,X055-X110-X039-XXXX,0.0,445.0,445.0,445.0,0.0,130.0,130.0,130.0,0.0,1290.0,1290.0,1290.0,0.0,90.0,90.0,90.0,0.0,390.0,390.0,390.0,0.0,0.0,0.0,0.0,Holstein,74.0,2345.0,40939.18,523376.64,366363.65,85208.54,250437.02,628092.0,29670000.0,29670000.0,0.0,0.0,"22846 Second AVE, Stevinson, CA 95374",37.33801,-120.90193
182,182,182,Duarte Acres Holsteins,8413 Faith Home RD,Ceres,Stanislaus,95307,,,,,(209) 678-1151,01/01/1958,San Joaquin River Basin,X022-X018-X005-X000,0.0,0.0,0.0,0.0,0.0,0.0,0.0,0.0,0.0,0.0,0.0,0.0,0.0,0.0,0.0,0.0,0.0,625.0,640.0,625.0,125.0,0.0,140.0,125.0,Holstein,1.0,750.0,8004.42,71175.0,49822.5,12045.0,1.0,0.0,9630000.0,9630000.0,0.0,0.0,"8413 Faith Home RD, Ceres, CA 95307",37.51659,-120.92376
183,183,183,Loek Van Warmerdam Dairy,1616 Cornelius Ave.,Nicolaus,Sutter,95659,,,,,(530) 870-1718,01/01/1950,Sacramento River Basin,XX28-X180-X013-XXXX,0.0,0.0,0.0,0.0,0.0,0.0,0.0,0.0,0.0,0.0,0.0,0.0,0.0,0.0,0.0,0.0,0.0,0.0,0.0,0.0,0.0,0.0,0.0,0.0,Holstein,1.0,,1.0,1.0,0.7,1.0,1.0,0.0,,0.0,0.0,0.0,"1616 Cornelius Ave., Nicolaus, CA 95659",38.92452,-121.5606
185,185,185,Lumar Dairy Farms,7215 S Prairie Flower RD,Turlock,Stanislaus,95380,,,,,(209) 495-8438,01/08/1987,San Joaquin River Basin,X057-X013-X015-XXXX,0.0,180.0,180.0,180.0,0.0,350.0,350.0,350.0,0.0,1750.0,1800.0,1750.0,0.0,250.0,250.0,250.0,0.0,150.0,150.0,150.0,0.0,120.0,120.0,120.0,Holstein,70.0,2800.0,52945.85,685246.17,479672.32,111635.06,335141.15,881475.0,24420000.0,24420000.0,0.0,0.0,"7215 S Prairie Flower RD, Turlock, CA 95380",37.4285,-120.93579
186,186,186,"Nunes Brothers, Inc.",22116 W HWY 152,Los Banos,Merced,93635,,,,,(209) 826-1144,01/01/1945,San Joaquin River Basin,0081-0150-0015-0000,50.0,0.0,50.0,50.0,0.0,0.0,0.0,0.0,0.0,700.0,700.0,700.0,0.0,110.0,110.0,110.0,200.0,0.0,200.0,200.0,250.0,0.0,250.0,250.0,Holstein,65.0,1310.0,23756.4,294730.46,206311.32,48814.55,131756.96,354889.5,93420000.0,93420000.0,0.0,0.0,"22116 W HWY 152, Los Banos, CA 93635",37.05963,-120.89212
187,187,187,A & C Vieira Dairy,31503 County Road 26,Woodland,Yolo,95695,,,,,(209) 678-2679,12/27/1999,Sacramento River Basin,0050-0011-0003-0000,0.0,500.0,500.0,500.0,0.0,300.0,300.0,300.0,0.0,1339.0,1339.0,1339.0,0.0,160.0,160.0,160.0,0.0,400.0,400.0,400.0,0.0,0.0,0.0,0.0,Jersey-Holstein Cross,63.0,2699.0,42241.72,542731.46,379912.02,86550.17,250272.79,667260.15,,0.0,0.0,0.0,"31503 County Road 26, Woodland, CA 95695",38.62908,-121.92025
189,189,189,Gomes Dairy,9735 Washington RD,Hilmar,Merced,95324,P.O. Box 1178,Hilmar,CA,95324,(209) 345-8173,01/01/1920,San Joaquin River Basin,X045-X130-X035-XXXX,0.0,0.0,0.0,0.0,0.0,0.0,0.0,0.0,0.0,620.0,620.0,620.0,0.0,90.0,90.0,90.0,0.0,50.0,50.0,50.0,0.0,210.0,210.0,210.0,Jersey-Holstein Cross,74.0,970.0,20072.78,252840.12,176988.08,42245.68,120365.08,312622.5,4914000.0,4914000.0,0.0,0.0,"9735 Washington RD, Hilmar, CA 95324",37.42974,-120.90479
191,191,191,Carl & Laurie Vieira Dairies,1000 N Mitchell RD,Turlock,Stanislaus,95380,P.O. Box 3308,Turlock,CA,95381,(209) 667-4644,01/15/1951,San Joaquin River Basin,"X022-X044-X001-XXXX, X022-X044-X002-XXXX",120.0,0.0,150.0,120.0,0.0,0.0,0.0,0.0,0.0,1100.0,1200.0,1150.0,210.0,0.0,225.0,210.0,250.0,0.0,300.0,250.0,300.0,0.0,300.0,300.0,Holstein,75.0,2030.0,38893.46,491162.26,343813.58,81242.36,224013.36,589767.0,37275000.0,37275000.0,0.0,0.0,"1000 N Mitchell RD, Turlock, CA 95380",37.50215,-120.94023
193,193,193,King Dairy,5524 S Central AVE,Turlock,Stanislaus,95380,,,,,(209) 761-5676,11/01/1962,San Joaquin River Basin,X057-X010-X009-XXXX,22.0,0.0,22.0,22.0,8.0,0.0,8.0,8.0,0.0,276.0,276.0,276.0,32.0,0.0,32.0,32.0,44.0,0.0,44.0,44.0,70.0,0.0,70.0,70.0,Holstein,70.0,452.0,8722.19,110756.51,77529.56,18380.81,52856.55,137313.0,6380890.0,6380890.0,0.0,0.0,"5524 S Central AVE, Turlock, CA 95380",37.4427,-120.95427
194,194,194,Diamond J Dairy LLC,6600 S Hwy 59,Merced,Merced,95341,,,,,(209) 725-2699,01/01/1993,San Joaquin River Basin,0066-0220-0013-0000,180.0,0.0,180.0,180.0,0.0,0.0,0.0,0.0,0.0,905.0,905.0,905.0,158.0,0.0,159.0,158.0,200.0,50.0,250.0,250.0,150.0,0.0,150.0,150.0,Jersey,67.0,1643.0,29261.57,375345.93,262742.15,61498.57,171532.1,462451.35,15105000.0,15105000.0,0.0,0.0,"6600 S Hwy 59, Merced, CA 95341",37.18814,-120.48801
196,196,196,MHF Dairy,501 E Story RD,Turlock,Stanislaus,95380,,,,,(209) 652-6929,01/01/1980,San Joaquin River Basin,,0.0,250.0,250.0,250.0,0.0,0.0,0.0,0.0,0.0,0.0,0.0,0.0,0.0,80.0,80.0,80.0,0.0,200.0,200.0,200.0,0.0,250.0,250.0,250.0,Holstein,1.0,780.0,6315.32,70080.0,49056.0,10057.58,1.0,18396.0,9006000.0,4173000.0,0.0,4833000.0,"501 E Story RD, Turlock, CA 95380",37.48926,-120.792
197,197,197,Live Oak Dairy G,730 Bystrum RD,Turlock,Stanislaus,95380,P.O. Box 1331,Hilmar,CA,95324,(209) 495-8821,01/01/1950,San Joaquin River Basin,"0057-0025-0012-0000, X022-X038-X009-XXXX, X045-X030-X018-XXXX",0.0,0.0,0.0,0.0,0.0,0.0,0.0,0.0,0.0,1200.0,1230.0,1200.0,150.0,0.0,150.0,150.0,100.0,0.0,100.0,100.0,0.0,0.0,0.0,0.0,Jersey,50.0,1450.0,30273.29,402494.08,281745.86,66581.42,214043.07,599512.5,15465000.0,14625000.0,0.0,840000.0,"730 Bystrum RD, Turlock, CA 95380",37.49989,-120.98363
198,198,198,D.V. Silveira & Sons Dairy,22578 Henry Miller RD,Los Banos,Merced,93635,P.O. Box 2350,Los Banos,CA,93635,(209) 604-1517,01/01/1970,San Joaquin River Basin,X070-X160-X020-XXXX,0.0,65.0,65.0,65.0,0.0,0.0,0.0,0.0,0.0,463.0,463.0,463.0,0.0,67.0,67.0,67.0,0.0,35.0,35.0,35.0,0.0,171.0,171.0,171.0,Jersey,47.0,801.0,13688.88,174038.92,121827.24,28440.84,81672.38,233410.2,5058000.0,5058000.0,0.0,0.0,"22578 Henry Miller RD, Los Banos, CA 93635",37.10368,-120.90073
199,199,199,Frank Azevedo Il Dairy,30711 Pfitzer RD,Gustine,Merced,95322,,,,,(209) 854-6594,01/01/1977,San Joaquin River Basin,"X069-X280-X013-XXXX, X069-X280-X017-XXXX, X069-X280-X031-XXXX",80.0,0.0,80.0,80.0,0.0,0.0,0.0,0.0,0.0,555.0,810.0,555.0,95.0,0.0,140.0,95.0,200.0,0.0,200.0,200.0,200.0,0.0,200.0,200.0,Holstein,72.0,1130.0,19937.89,247224.71,173057.3,40826.51,107016.89,283167.0,10355000.0,10355000.0,0.0,0.0,"30711 Pfitzer RD, Gustine, CA 95322",37.20886,-121.04852
200,200,200,Dasilva Dairy Farms LLC #2,24628 E Mariposa RD,Escalon,San Joaquin,95320,,,,,(209) 000-0000,04/01/1991,San Joaquin River Basin,X207-X350-X013-XXXX,0.0,0.0,0.0,0.0,0.0,0.0,0.0,0.0,0.0,400.0,400.0,400.0,0.0,0.0,0.0,0.0,0.0,0.0,0.0,0.0,0.0,0.0,0.0,0.0,Holstein,75.0,400.0,10496.75,137220.96,96054.67,23275.42,77917.69,188340.0,12960000.0,12960000.0,0.0,0.0,"24628 E Mariposa RD, Escalon, CA 95320",37.83873,-121.0089
201,201,201,Double Cross #3,11071 Youngstown RD,Turlock,Merced,95380,,,,,(209) 668-0807,07/01/1970,San Joaquin River Basin,"X041-X060-X015-XXXX, X041-X060-X017-XXXX",0.0,0.0,0.0,0.0,0.0,0.0,0.0,0.0,0.0,402.0,402.0,402.0,0.0,0.0,0.0,0.0,149.0,0.0,149.0,149.0,0.0,0.0,0.0,0.0,Jersey-Holstein Cross,64.0,551.0,11486.79,145261.78,101683.25,24537.1,75402.03,189281.7,4740000.0,4740000.0,0.0,0.0,"11071 Youngstown RD, Turlock, CA 95380",37.45006,-120.82204
202,202,202,LUIS CORREIA DAIRY,11775 S Arbor Way,El Nido,Merced,95317,P.O. Box 53,El Nido,CA,95317,(209) 201-1520,01/01/1933,San Joaquin River Basin,"0075-0072-0013-0000, 0075-0072-0014-0000",0.0,0.0,0.0,0.0,0.0,0.0,0.0,0.0,0.0,492.0,508.0,492.0,45.0,0.0,50.0,45.0,95.0,0.0,118.0,95.0,0.0,0.0,0.0,0.0,Holstein,69.0,632.0,14213.01,181480.05,127036.04,30405.63,93899.3,242005.95,11700000.0,11700000.0,0.0,0.0,"11775 S Arbor Way, El Nido, CA 95317",37.11544,-120.45594
203,203,203,Lumar Dairy Farms,7215 S Prairie Flower RD,Turlock,Stanislaus,95380,,,,,(209) 495-8438,01/08/1987,San Joaquin River Basin,X057-X013-X015-XXXX,0.0,180.0,180.0,180.0,0.0,350.0,350.0,350.0,0.0,1750.0,1800.0,1750.0,0.0,250.0,250.0,250.0,0.0,150.0,150.0,150.0,0.0,120.0,120.0,120.0,Holstein,70.0,2800.0,52945.85,685246.17,479672.32,111635.06,335141.15,881475.0,24420000.0,24420000.0,0.0,0.0,"7215 S Prairie Flower RD, Turlock, CA 95380",37.4285,-120.93579
204,204,204,Sierra Ranches,1412 Albers RD,Modesto,Stanislaus,95357,P.O. Box 577980,Modesto,CA,95357,(209) 277-6896,04/01/1988,San Joaquin River Basin,X014-X045-X004-XXXX,0.0,0.0,0.0,0.0,0.0,0.0,0.0,0.0,0.0,0.0,0.0,0.0,0.0,0.0,0.0,0.0,0.0,0.0,0.0,0.0,225.0,0.0,225.0,225.0,Other,1.0,225.0,2536.83,21352.5,14946.75,3613.5,1.0,0.0,4999500.0,4999500.0,0.0,0.0,"1412 Albers RD, Modesto, CA 95357",37.66438,-120.84742
206,206,206,Ken Van Foeken Dairy #1,22338 Short RD,Hilmar,Merced,95324,,,,,(209) 667-2393,10/01/1983,San Joaquin River Basin,X045-X130-X046-XXXX,0.0,32.0,32.0,32.0,0.0,40.0,40.0,40.0,0.0,410.0,410.0,410.0,0.0,45.0,45.0,45.0,0.0,75.0,75.0,75.0,0.0,58.0,58.0,58.0,,57.0,660.0,12084.86,153840.57,107688.4,25255.28,75016.97,203396.25,11115000.0,11115000.0,0.0,0.0,"22338 Short RD, Hilmar, CA 95324",37.42817,-120.89198
207,207,207,John Thomas Dairy,10408 W Bradbury RD,turlock,Stanislaus,95380,P.O. Box 1024,Hilmar,CA,95324,(209) 678-2670,01/01/1950,San Joaquin River Basin,0057-0003-0002-0000,90.0,0.0,90.0,90.0,175.0,0.0,175.0,175.0,0.0,0.0,0.0,0.0,0.0,0.0,0.0,0.0,125.0,100.0,225.0,225.0,125.0,0.0,125.0,125.0,Holstein,1.0,615.0,4610.48,46756.5,32729.55,6578.58,1.0,0.0,6420000.0,6420000.0,0.0,0.0,"10408 W Bradbury RD, turlock, CA 95380",37.44716,-120.96951
209,209,209,Joe Simoes & Sons Dairy Inc.,6900 Lambert RD,Elk Grove,Sacramento,95757,,,,,(123) 000-0000,01/01/1959,Sacramento River Basin,X146-X004-X012-XXXX,75.0,0.0,75.0,75.0,0.0,0.0,0.0,0.0,0.0,900.0,900.0,900.0,0.0,125.0,125.0,125.0,0.0,0.0,0.0,0.0,0.0,0.0,0.0,0.0,Holstein,70.0,1100.0,25197.82,328487.09,229940.96,54382.31,172358.3,452508.75,18014100.0,18014100.0,0.0,0.0,"6900 Lambert RD, Elk Grove, CA 95757",38.31822,-121.42412
211,211,211,Blaker Heifer Ranch,737 S Blaker RD,Turlock,Stanislaus,95380,,,,,(209) 485-0922,07/03/1953,San Joaquin River Basin,0058-0008-0003-0000,0.0,0.0,0.0,0.0,0.0,0.0,0.0,0.0,0.0,0.0,0.0,0.0,0.0,0.0,0.0,0.0,200.0,0.0,200.0,200.0,50.0,0.0,50.0,50.0,Holstein,1.0,250.0,2490.2,23725.0,16607.5,4015.0,9000.0,0.0,,0.0,0.0,0.0,"737 S Blaker RD, Turlock, CA 95380",37.48734,-120.97193
212,212,212,Fire-Lake Jerseys,11301 W Bradbury RD,Turlock,Stanislaus,95380,P.O. Box 459,Hilmar,CA,95324,(209) 632-2924,01/01/1950,San Joaquin River Basin,"X058-X025-X004-XXXX, X058-X025-X005-XXXX",20.0,0.0,20.0,20.0,53.0,0.0,53.0,53.0,20.0,218.0,238.0,234.0,22.0,0.0,22.0,22.0,110.0,0.0,110.0,110.0,37.0,23.0,60.0,60.0,Jersey,54.0,499.0,7710.41,96612.23,67628.56,15753.63,42353.35,115237.8,4760000.0,4760000.0,0.0,0.0,"11301 W Bradbury RD, Turlock, CA 95380",37.44956,-120.97848
213,213,213,BWC Weststeyn Dairy LP,1763 S Hewitt RD,Linden,San Joaquin,95236,,,,,(209) 404-9100,01/01/1977,San Joaquin River Basin,"X183-X300-XX05-XXXX, X183-X300-XX06-XXXX, X183-X300-XX07-XXXX, X183-X300-XX08-XXXX",450.0,0.0,450.0,450.0,580.0,0.0,580.0,580.0,0.0,2800.0,2800.0,2800.0,200.0,200.0,400.0,400.0,1220.0,0.0,1220.0,1220.0,1000.0,0.0,1000.0,1000.0,Holstein,80.0,6450.0,106567.12,1318340.16,922838.11,215889.1,554621.83,1410360.0,71045240.0,71045240.0,0.0,0.0,"1763 S Hewitt RD, Linden, CA 95236",37.95428,-121.0415
214,214,214,Kooyman and Son Dairy,6787 E Jahant RD,Acampo,San Joaquin,95220,,,,,(209) 367-4426,01/01/1984,San Joaquin River Basin,X005-X250-XX14-XXXX,75.0,0.0,75.0,75.0,75.0,0.0,75.0,75.0,0.0,470.0,470.0,315.0,70.0,0.0,70.0,47.0,150.0,0.0,150.0,150.0,150.0,0.0,150.0,150.0,Holstein,75.0,812.0,12448.94,152774.01,106941.81,24821.65,61360.18,159125.4,7111500.0,7111500.0,0.0,0.0,"6787 E Jahant RD, Acampo, CA 95220",38.20742,-121.2335
216,216,216,Dairy Central,6626 N Central AVE,Hilmar,Merced,95324,,,,,(209) 321-5444,01/01/1932,San Joaquin River Basin,X045-X050-X002-XXXX,0.0,0.0,0.0,0.0,0.0,0.0,0.0,0.0,0.0,1485.0,1485.0,1485.0,0.0,205.0,205.0,205.0,0.0,0.0,0.0,0.0,0.0,0.0,0.0,0.0,Holstein,76.0,1690.0,42180.86,549123.99,384386.79,91767.45,290245.07,746352.0,15141854.0,15141854.0,0.0,0.0,"6626 N Central AVE, Hilmar, CA 95324",37.38539,-120.95864
218,218,218,John Brasil Dairy #2,9018 W Linwood AVE,Turlock,Stanislaus,95380,,,,,(209) 632-7867,01/01/1940,San Joaquin River Basin,X058-X170-X018-XXXX,80.0,0.0,80.0,80.0,0.0,0.0,0.0,0.0,0.0,750.0,750.0,750.0,70.0,0.0,70.0,70.0,80.0,0.0,80.0,80.0,90.0,0.0,90.0,90.0,Jersey,68.0,1070.0,21869.01,282229.38,197560.57,46865.74,142646.42,369234.0,9180000.0,9180000.0,0.0,0.0,"9018 W Linwood AVE, Turlock, CA 95380",37.47641,-120.95362
220,220,220,Pires Dairy,23800 Jack Tone RD,Acampo,San Joaquin,95220,,,,,(123) 000-0000,01/01/1960,San Joaquin River Basin,X021-X050-X009-XXXX,25.0,0.0,25.0,25.0,25.0,0.0,25.0,25.0,0.0,210.0,210.0,210.0,40.0,0.0,40.0,40.0,80.0,0.0,80.0,80.0,60.0,0.0,60.0,60.0,Holstein,70.0,440.0,7553.36,93570.82,65499.57,15316.02,40216.94,108076.5,3948000.0,3948000.0,0.0,0.0,"23800 Jack Tone RD, Acampo, CA 95220",38.20262,-121.14763
222,222,222,DBA County Line Cattle,2002 E Highway 152,El Nido,Merced,95317,P.O. Box 9,El Nido,CA,95317,(209) 617-9978,01/01/2000,San Joaquin River Basin,"X074-X160-X022-XXXX, X074-X160-X046-XXXX",170.0,0.0,250.0,170.0,0.0,0.0,0.0,0.0,0.0,0.0,0.0,0.0,0.0,0.0,0.0,0.0,1765.0,0.0,2500.0,1765.0,830.0,0.0,1300.0,830.0,Holstein,1.0,2765.0,26182.36,254952.5,178466.75,42290.0,1.0,0.0,3072000.0,3072000.0,0.0,0.0,"2002 E Highway 152, El Nido, CA 95317",37.0761,-120.51101
223,223,223,Gary Pellandini,13020 Pellandini RD,Galt,Sacramento,95632,,,,,(209) 745-1488,01/01/1950,Sacramento River Basin,"0146-0230-0020-0000, 0146-0230-0021-0000, 0146-0230-0022-0000",0.0,0.0,0.0,0.0,0.0,0.0,0.0,0.0,0.0,0.0,0.0,0.0,0.0,0.0,0.0,0.0,0.0,0.0,0.0,0.0,0.0,0.0,0.0,0.0,Holstein,1.0,,1.0,1.0,0.7,1.0,1.0,0.0,,0.0,0.0,0.0,"13020 Pellandini RD, Galt, CA 95632",38.28289,-121.35146
226,226,226,KMA Dairy,3737 Weir RD,Livingston,Merced,95334,,,,,(209) 000-0000,01/01/1940,San Joaquin River Basin,X049-X400-X005-XXXX,0.0,0.0,0.0,0.0,0.0,0.0,0.0,0.0,0.0,280.0,280.0,280.0,0.0,20.0,20.0,20.0,40.0,0.0,40.0,40.0,0.0,0.0,0.0,0.0,Holstein,65.0,340.0,7686.22,99204.18,69442.93,16626.99,52702.78,136437.0,1656000.0,504000.0,0.0,1152000.0,"3737 Weir RD, Livingston, CA 95334",37.34188,-120.79692
227,227,227,Dan Perry,1008 N Verduga RD,Turlock,Stanislaus,95380,,,,,(209) 620-3622,01/01/1932,San Joaquin River Basin,X024-X038-X016-XXXX,0.0,0.0,0.0,0.0,0.0,0.0,0.0,0.0,0.0,0.0,0.0,0.0,0.0,0.0,0.0,0.0,0.0,0.0,0.0,0.0,0.0,0.0,0.0,0.0,Holstein,1.0,,1.0,1.0,0.7,1.0,1.0,0.0,1920000.0,1920000.0,0.0,0.0,"1008 N Verduga RD, Turlock, CA 95380",37.50241,-120.80759
229,229,229,A&C Machado (formerly Ahlem Farms Jerseys),825 Ruble RD,Crows Landing,Stanislaus,95313,,,,,(209) 652-4778,01/01/1980,San Joaquin River Basin,"X053-X003-X008-XXXX, X058-X003-X007-XXXX, X058-X004-X012-XXXX, X058-X040-X015-XXXX",153.0,0.0,153.0,153.0,164.0,0.0,164.0,164.0,0.0,1085.0,1085.0,1085.0,0.0,220.0,220.0,220.0,354.0,0.0,354.0,354.0,336.0,0.0,336.0,336.0,Jersey-Holstein Cross,58.0,2312.0,36762.73,465738.44,326016.91,75457.1,199233.37,561461.25,13122000.0,13122000.0,0.0,0.0,"825 Ruble RD, Crows Landing, CA 95313",37.48604,-121.00541
230,230,230,GM Silva Dairies,20316 Crane AVE,Hilmar,Merced,95324,,,,,(209) 652-6581,01/01/1990,San Joaquin River Basin,"X045-X230-X060-XXXX, X045-X350-X013-XXXX",100.0,0.0,100.0,100.0,230.0,0.0,230.0,230.0,0.0,1295.0,1295.0,1295.0,0.0,165.0,165.0,165.0,45.0,25.0,70.0,70.0,430.0,0.0,430.0,430.0,,69.0,2290.0,41046.14,526755.6,368728.92,86359.22,247153.63,647692.5,16558500.0,14500500.0,0.0,2058000.0,"20316 Crane AVE, Hilmar, CA 95324",37.38271,-120.8537
231,231,231,Vitoria Dairy,14018 Crowslanding Road,Crowslanding,Stanislaus,95313,P.O. Box 327,Crows Landing,CA,95313,(209) 652-9489,02/15/1953,San Joaquin River Basin,"X057-X026-X007-XXXX, X057-X026-X011-XXXX",182.0,0.0,182.0,182.0,0.0,0.0,0.0,0.0,0.0,1002.0,1002.0,1002.0,0.0,102.0,102.0,102.0,300.0,0.0,330.0,300.0,300.0,0.0,330.0,300.0,Holstein,68.0,1886.0,33613.29,417831.0,292481.7,69076.81,190575.62,495246.6,22960000.0,22960000.0,0.0,0.0,"14018 Crowslanding Road, Crowslanding, CA 95313",37.43345,-121.00166
232,232,232,Double Cross Dairy #4,6006 S Central AVE,Turlock,Stanislaus,95380,,,,,(209) 667-0667,03/01/1960,San Joaquin River Basin,"X057-X009-X006-XXXX, X057-X009-X007-XXXX",0.0,0.0,0.0,0.0,0.0,0.0,0.0,0.0,0.0,0.0,0.0,0.0,0.0,0.0,0.0,0.0,0.0,150.0,200.0,150.0,0.0,0.0,0.0,0.0,Jersey-Holstein Cross,1.0,150.0,1469.48,14235.0,9964.5,2409.0,1.0,0.0,6663531.0,19993826.0,13330295.0,0.0,"6006 S Central AVE, Turlock, CA 95380",37.4362,-120.95311
234,234,234,Delta Woods Dairy,18700 S Bacchetti RD,Tracy,San Joaquin,95304,,,,,(209) 564-2624,01/01/1944,San Joaquin River Basin,"X212-X110-XX08-XXXX, X212-X120-XX02-XXXX, X212-X120-XX03-XXXX, X212-X120-XX09-XXXX, X212-X120-XX14-XXXX",110.0,0.0,120.0,110.0,0.0,0.0,0.0,0.0,0.0,670.0,700.0,690.0,0.0,90.0,120.0,90.0,220.0,0.0,220.0,210.0,200.0,0.0,200.0,200.0,,72.0,1300.0,23680.56,294484.82,206139.37,48716.25,133048.03,345582.0,17400000.0,17400000.0,0.0,0.0,"18700 S Bacchetti RD, Tracy, CA 95304",37.79102,-121.43483
237,237,237,Valentine Dairy,20717 Bloss AVE,Hilmar,Merced,95324,,,,,(209) 667-4582,01/01/1932,San Joaquin River Basin,X045-X170-X034-XXXX,0.0,0.0,0.0,0.0,0.0,0.0,0.0,0.0,0.0,0.0,0.0,0.0,0.0,0.0,0.0,0.0,0.0,394.0,394.0,394.0,412.0,0.0,412.0,412.0,Other,1.0,806.0,8278.4,76489.4,53542.58,12944.36,1.0,0.0,18106000.0,21604000.0,3498000.0,0.0,"20717 Bloss AVE, Hilmar, CA 95324",37.40402,-120.86305
238,238,238,Toledo Dairy,26280 N Elliott RD,Galt,Sacramento,95632,,,,,(209) 368-7311,01/01/1980,San Joaquin River Basin,X007-X220-XX18-XXXX,106.0,0.0,106.0,106.0,0.0,130.0,130.0,130.0,0.0,575.0,575.0,575.0,0.0,1.0,1.0,1.0,100.0,0.0,100.0,100.0,215.0,0.0,215.0,215.0,Holstein,60.0,1127.0,18055.22,226156.01,158309.21,36960.7,106340.06,270968.7,25704000.0,25704000.0,0.0,0.0,"26280 N Elliott RD, Galt, CA 95632",38.22732,-121.17062
241,241,241,Double D Jerseys,937 El Katrina LN,Ceres,Stanislaus,95307,,,,,(209) 537-4133,01/01/1925,San Joaquin River Basin,"X022-X022-X006-XXXX, X022-X027-X010-XXXX, X022-X027-X011-XXXX",0.0,150.0,150.0,150.0,0.0,300.0,300.0,300.0,0.0,1250.0,1250.0,1250.0,0.0,0.0,0.0,0.0,0.0,0.0,0.0,0.0,400.0,0.0,400.0,400.0,,60.0,2100.0,35607.5,460999.37,322699.56,75495.56,231174.03,588562.5,60768750.0,60768750.0,0.0,0.0,"937 El Katrina LN, Ceres, CA 95307",37.51132,-120.98213
242,242,242,Manuel Martins Dairy L.P.,10043 Milnes,Modesto,Stanislaus,95307,,,,,(209) 529-8133,09/09/1978,San Joaquin River Basin,X015-X001-X020-XXXX,0.0,135.0,135.0,135.0,0.0,85.0,85.0,85.0,0.0,820.0,820.0,820.0,0.0,100.0,100.0,100.0,25.0,0.0,25.0,25.0,0.0,0.0,0.0,0.0,Holstein,68.0,1165.0,23325.82,304359.67,213051.77,49700.58,155960.09,409092.0,12234000.0,10764000.0,0.0,1470000.0,"10043 Milnes, Modesto, CA 95307",37.68258,-120.81041
243,243,243,J-D Brasil Dairy,5600 Clayton RD,Turlock,Stanislaus,95380,,,,,(209) 652-4724,06/01/1999,San Joaquin River Basin,X044-X002-X014-XXXX,0.0,0.0,0.0,0.0,0.0,0.0,0.0,0.0,0.0,368.0,368.0,368.0,0.0,17.0,17.0,17.0,0.0,62.0,62.0,62.0,0.0,0.0,0.0,0.0,Holstein,85.0,447.0,10964.26,140876.4,98613.48,23856.93,74102.04,177181.95,6390000.0,2448000.0,0.0,3942000.0,"5600 Clayton RD, Turlock, CA 95380",37.47989,-120.91512
245,245,245,Valley Cross Dairy,9500 Linwood AVE,Turlock,Stanislaus,95380,P.O. Box 3882,Turlcok,CA,95381,(209) 632-2924,03/20/1995,San Joaquin River Basin,X058-X180-X001-XXXX,0.0,0.0,0.0,0.0,0.0,0.0,0.0,0.0,0.0,271.0,271.0,271.0,0.0,0.0,0.0,0.0,138.0,0.0,138.0,138.0,0.0,0.0,0.0,0.0,Jersey-Holstein Cross,57.0,409.0,7887.49,98578.3,69004.81,16609.08,49584.39,127600.35,4455000.0,4455000.0,0.0,0.0,"9500 Linwood AVE, Turlock, CA 95380",37.47814,-120.95369
249,249,249,John Brasil Dairy #3,1707 S Mitchell RD,Turlock,Merced,95380,,,,,(209) 632-7867,11/01/1991,San Joaquin River Basin,"X058-X011-X011-XXXX, X058-X015-X008-XXXX, X058-X016-X016-XXXX, X058-X030-X007-XXXX",0.0,0.0,0.0,0.0,0.0,0.0,0.0,0.0,0.0,575.0,575.0,575.0,60.0,0.0,60.0,60.0,0.0,0.0,0.0,0.0,0.0,0.0,0.0,0.0,Jersey,56.0,635.0,14639.59,191441.15,134008.81,31821.39,104828.96,284535.75,13428000.0,13428000.0,0.0,0.0,"1707 S Mitchell RD, Turlock, CA 95380",37.47544,-120.94239
250,250,250,Foster Farms #4,5372 S Hickman RD,Hickman,Stanislaus,95316,,,,,(209) 548-7640,01/01/1958,San Joaquin River Basin,"0019-0041-0032-0000, 0019-0041-0033-0000, 0080-0110-0140-0000",0.0,0.0,0.0,0.0,0.0,0.0,0.0,0.0,0.0,2693.0,2714.0,2693.0,654.0,0.0,867.0,654.0,37.0,0.0,48.0,37.0,0.0,0.0,0.0,0.0,Holstein,88.0,3384.0,84733.1,1100426.32,770298.42,182928.48,547581.77,1418386.35,58157000.0,58157000.0,0.0,0.0,"5372 S Hickman RD, Hickman, CA 95316",37.55509,-120.74695
251,251,251,Chris Verboom Dairy,5951 County Rd 17,Orland,Glenn,95963,,,,,(530) 520-4876,09/15/1993,Sacramento River Basin,0027-0300-0004-0009,0.0,100.0,100.0,100.0,0.0,0.0,0.0,0.0,0.0,0.0,0.0,0.0,0.0,0.0,0.0,0.0,0.0,200.0,200.0,200.0,0.0,200.0,200.0,200.0,Holstein,1.0,500.0,4133.97,43070.0,30149.0,6785.35,45000.0,0.0,1000000.0,1000000.0,0.0,0.0,"5951 County Rd 17, Orland, CA 95963",39.73812,-122.25347
252,252,252,Nylund Dairy Farms,20723 Geer RD,Hilmar,Merced,95324,P.O. Box 1029,Hilmar,CA,95324,(209) 652-5424,01/01/1921,San Joaquin River Basin,"0045-0200-0034-0000, 0045-0200-0035-0000, 0045-0200-0037-0000, 0045-0200-0061-0000",0.0,180.0,180.0,180.0,0.0,300.0,300.0,300.0,0.0,2050.0,2050.0,2050.0,0.0,300.0,300.0,300.0,0.0,600.0,600.0,600.0,200.0,220.0,420.0,420.0,Holstein,75.0,3850.0,69834.82,879333.42,615533.39,144629.23,399328.16,1034227.5,27940200.0,24900000.0,0.0,3040200.0,"20723 Geer RD, Hilmar, CA 95324",37.39524,-120.86155
253,253,253,Machado Dairy Farms #4,26298 Groves RD,Farmington,San Joaquin,95230,P.O. Box 263,Farmington,CA,95230,(209) 602-8598,01/01/1980,San Joaquin River Basin,"X187-X190-XX03-XXXX, X187-X300-XX14-XXXX",0.0,0.0,0.0,0.0,0.0,0.0,0.0,0.0,0.0,715.0,720.0,715.0,0.0,1.0,1.0,1.0,0.0,0.0,0.0,0.0,0.0,0.0,0.0,0.0,,75.0,716.0,18777.16,245464.97,171825.48,41628.91,139277.87,336887.7,34425000.0,34425000.0,0.0,0.0,"26298 Groves RD, Farmington, CA 95230",37.94085,-120.99087
254,254,254,A & G Azevedo Dairy,536 N Prairie Flower RD,Turlock,Stanislaus,95380,,,,,(209) 669-8365,01/01/1950,San Joaquin River Basin,XX22-XX45-XX44-XXXX,0.0,34.0,34.0,34.0,0.0,35.0,65.0,50.0,65.0,130.0,240.0,210.0,30.0,0.0,50.0,35.0,10.0,0.0,20.0,10.0,0.0,15.0,34.0,17.0,Holstein,68.0,356.0,6452.24,83027.55,58119.29,13385.15,39941.0,106926.75,922500.0,922500.0,0.0,0.0,"536 N Prairie Flower RD, Turlock, CA 95380",37.4957,-120.93083
255,255,255,Joe Egli & Sons Dairy,21810 W August AVE,Hilmar,Merced,95324,,,,,(209) 634-9559,06/01/1954,San Joaquin River Basin,"X045-X140-X012-XXXX, X045-X140-X054-XXXX, X045-X170-X002-XXXX, X045-X170-X064-XXXX",0.0,23.0,23.0,23.0,0.0,56.0,56.0,56.0,0.0,262.0,262.0,262.0,0.0,27.0,27.0,27.0,0.0,60.0,60.0,60.0,0.0,42.0,42.0,42.0,Holstein,71.0,470.0,8483.84,106915.81,74841.07,17523.73,50347.55,129571.35,8015000.0,22040000.0,14025000.0,0.0,"21810 W August AVE, Hilmar, CA 95324",37.41924,-120.8833
256,256,256,L&L Pires Dairy,7713 Maze BLVD,Modesto,Stanislaus,95358,,,,,(123) 000-0000,01/01/1950,San Joaquin River Basin,X012-X042-X010-XXXX,0.0,0.0,0.0,0.0,0.0,0.0,0.0,0.0,0.0,0.0,0.0,0.0,0.0,0.0,0.0,0.0,0.0,0.0,0.0,0.0,0.0,0.0,0.0,0.0,Jersey-Holstein Cross,1.0,,1.0,1.0,0.7,1.0,1.0,0.0,3060000.0,3060000.0,0.0,0.0,"7713 Maze BLVD, Modesto, CA 95358",37.64126,-121.13625
257,257,257,Rocking S Dairy #1,3301 Ladd RD,Modesto,Stanislaus,95356,,,,,(209) 000-0000,12/07/1979,San Joaquin River Basin,"X003-X024-X006-XXXX, X030-X240-X070-XXXX",0.0,0.0,0.0,0.0,0.0,0.0,0.0,0.0,0.0,1250.0,1280.0,1250.0,0.0,0.0,0.0,0.0,580.0,0.0,600.0,580.0,1050.0,0.0,1100.0,1050.0,Holstein,80.0,2880.0,49295.2,593092.87,415165.01,100676.91,247599.03,588562.5,57188750.0,57188750.0,0.0,0.0,"3301 Ladd RD, Modesto, CA 95356",37.73483,-121.05688
258,258,258,Live Oak H (Formerly Silveira Dairy Inc.),20271 Johnson AVE,Hilmar,Merced,95324,P.O. Box 1331,Hilmar,CA,95324,(209) 495-8821,01/01/1940,San Joaquin River Basin,XX45-X140-XX26-XXXX,0.0,0.0,0.0,0.0,0.0,0.0,0.0,0.0,0.0,400.0,400.0,400.0,0.0,200.0,200.0,200.0,0.0,0.0,0.0,0.0,0.0,0.0,0.0,0.0,Jersey,60.0,600.0,12349.05,164514.2,115159.94,26400.55,73975.69,234330.0,8118000.0,8118000.0,0.0,0.0,"20271 Johnson AVE, Hilmar, CA 95324",37.43306,-120.85463
259,259,259,Cressey River LLC,10986 Livingston Cressey WAY,Livingston,Merced,95334,P.O. Box 2717,Merced,CA,95344,(209) 383-6046,01/01/1972,San Joaquin River Basin,"X140-X060-X040-XXXX, X140-X060-X048-XXXX, X140-X060-X049-XXXX",0.0,0.0,0.0,0.0,0.0,0.0,0.0,0.0,0.0,0.0,0.0,0.0,0.0,0.0,0.0,0.0,0.0,0.0,0.0,0.0,0.0,0.0,0.0,0.0,Holstein,1.0,,1.0,1.0,0.7,1.0,1.0,0.0,,0.0,0.0,0.0,"10986 Livingston Cressey WAY, Livingston, CA 95334",37.41946,-120.68583
260,260,260,Martins View Jersey Dairy #2,28336 W Bambauer RD,Gustine,Merced,95322,,,,,(209) 678-2208,01/01/1941,San Joaquin River Basin,"0054-0110-0023-0000, 0063-0050-0028-0000",80.0,0.0,80.0,80.0,0.0,0.0,0.0,0.0,0.0,0.0,0.0,0.0,0.0,0.0,0.0,0.0,0.0,399.0,400.0,390.0,47.0,0.0,50.0,45.0,Jersey,1.0,515.0,4440.35,45369.5,31758.65,7275.18,1.0,0.0,2860197.0,4825051.0,1964854.0,0.0,"28336 W Bambauer RD, Gustine, CA 95322",37.27516,-121.00056
261,261,261,MACHADO & SONS,11735 CARROLL RD,ELK GROVE,Sacramento,95757,,,,,(916) 715-9102,02/09/1972,Sacramento River Basin,X132-X240-X061-XXXX,0.0,20.0,20.0,20.0,0.0,15.0,15.0,15.0,0.0,110.0,110.0,110.0,0.0,10.0,10.0,10.0,15.0,0.0,15.0,15.0,480.0,0.0,480.0,480.0,Holstein,65.0,650.0,7850.86,86636.86,60645.8,14407.45,20704.66,54093.0,290000.0,290000.0,0.0,0.0,"11735 CARROLL RD, ELK GROVE, CA 95757",38.33258,-121.39413
262,262,262,Golf Link Ranches LLC,10220 Golf Link RD,Turlock,Merced,95380,,,,,(209) 667-0667,01/01/1970,San Joaquin River Basin,"X045-X910-X016-XXXX, X045-X910-X025-XXXX",0.0,0.0,0.0,0.0,0.0,0.0,0.0,0.0,0.0,0.0,0.0,0.0,0.0,0.0,0.0,0.0,236.0,300.0,536.0,536.0,11.0,0.0,11.0,11.0,Jersey-Holstein Cross,1.0,547.0,5531.18,51910.3,36337.21,8784.82,1.0,0.0,5445000.0,0.0,0.0,5445000.0,"10220 Golf Link RD, Turlock, CA 95380",37.43659,-120.83093
263,263,263,Double Cross #6 (Formerly Larry B. Peterson Dairy),21189 American AVE,Hilmar,Merced,95324,,,,,(209) 668-0867,01/01/1950,San Joaquin River Basin,X045-X170-X019-XXXX,0.0,0.0,0.0,0.0,0.0,0.0,0.0,0.0,0.0,1119.0,1119.0,1119.0,210.0,0.0,210.0,210.0,339.0,0.0,339.0,339.0,0.0,0.0,0.0,0.0,Holstein,73.0,1668.0,35865.9,450937.61,315656.33,74984.8,216504.37,575170.65,54078000.0,8718000.0,0.0,45360000.0,"21189 American AVE, Hilmar, CA 95324",37.40964,-120.87163
269,269,269,140 Cattle Company,15751 W HWY 140,Livingston,Merced,95334,P.O. Box 1342,Hilmar,CA,95324,(209) 495-8821,01/01/1980,San Joaquin River Basin,"X049-X100-X007-XXXX, X049-X110-X002-XXXX, X049-X140-X002-XXXX",2155.0,0.0,2155.0,2155.0,5653.0,0.0,5653.0,5653.0,0.0,0.0,0.0,0.0,0.0,0.0,0.0,0.0,1751.0,0.0,1751.0,1751.0,2723.0,0.0,2723.0,2723.0,Jersey,1.0,12282.0,69115.02,823571.4,576499.98,100066.65,1.0,0.0,41364000.0,41364000.0,0.0,0.0,"15751 W HWY 140, Livingston, CA 95334",37.30381,-120.77363
270,270,270,California Cloverleaf Farms,22323 E Monte Vista AVE,Denair,Merced,95316,,,,,(209) 874-1309,01/01/2001,San Joaquin River Basin,"X038-X010-X019-XXXX, X042-X150-X021-XXXX, X042-X150-X067-XXXX",0.0,0.0,0.0,0.0,0.0,0.0,0.0,0.0,0.0,0.0,0.0,0.0,0.0,0.0,0.0,0.0,0.0,0.0,0.0,0.0,0.0,0.0,0.0,0.0,Jersey-Holstein,1.0,,1.0,1.0,0.7,1.0,1.0,0.0,5508000.0,5508000.0,0.0,0.0,"22323 E Monte Vista AVE, Denair, CA 95316",37.52073,-120.67862
271,271,271,Bay Meadow Farm,10326 Walnut AVE,Galt,Sacramento,95632,,,,,(209) 745-1222,10/07/1957,Sacramento River Basin,1480-0730-0600-00XX,0.0,0.0,0.0,0.0,0.0,0.0,0.0,0.0,57.0,0.0,57.0,57.0,0.0,0.0,0.0,0.0,0.0,0.0,0.0,0.0,0.0,0.0,0.0,0.0,Guernsey,54.0,57.0,1354.45,17717.24,12402.07,2979.02,10316.84,26838.45,117600.0,117600.0,0.0,0.0,"10326 Walnut AVE, Galt, CA 95632",38.27847,-121.30718
273,273,273,Five H Farms,5851 S Highway 59,Merced,Merced,95340,,,,,(209) 631-1887,09/01/1999,San Joaquin River Basin,X065-X130-X051-XXXX,300.0,0.0,300.0,300.0,0.0,0.0,0.0,0.0,0.0,2075.0,2146.0,2075.0,0.0,330.0,350.0,330.0,570.0,0.0,700.0,570.0,0.0,0.0,0.0,0.0,Holstein,78.0,3275.0,66886.2,851033.74,595723.62,140685.56,408287.85,1052897.25,49597500.0,49597500.0,0.0,0.0,"5851 S Highway 59, Merced, CA 95340",37.20123,-120.49111
275,275,275,Eugenio Azevedo Vassar,1730 Vassar AVE,Merced,Merced,95340,,,,,(209) 812-4171,01/01/1958,San Joaquin River Basin,"0066-0060-0006-0000, 0066-0060-0007-0000",0.0,0.0,0.0,0.0,0.0,0.0,0.0,0.0,0.0,33.0,390.0,33.0,0.0,0.0,0.0,0.0,0.0,5.0,60.0,5.0,0.0,0.0,0.0,0.0,Jersey-Holstein Cross,68.0,38.0,889.33,11440.77,8008.54,1935.35,6276.44,15538.05,2016000.0,2016000.0,0.0,0.0,"1730 Vassar AVE, Merced, CA 95340",37.26626,-120.4561
278,278,278,Arlinda Holsteins,6325 West main ST,Turlock,Stanislaus,95380,P.O. Box 3308,Turlock,CA,95381,(209) 667-4644,02/23/1950,San Joaquin River Basin,X023-X040-X001-XXXX,110.0,0.0,110.0,110.0,225.0,0.0,225.0,225.0,60.0,280.0,340.0,320.0,20.0,0.0,20.0,20.0,150.0,0.0,160.0,160.0,160.0,0.0,160.0,160.0,Holstein,83.0,995.0,13078.16,164841.49,115389.04,26174.15,64016.07,155271.0,5004469.0,5004469.0,0.0,0.0,"6325 West main ST, Turlock, CA 95380",37.49634,-120.91955
284,284,284,Lima Ranch,13436 N Thornton RD,Lodi,San Joaquin,95242,,,,,(209) 334-5422,01/01/1932,San Joaquin River Basin,"X055-X130-XX01-XXXX, X055-X140-XX07-XXXX, X055-X140-XX09-XXXX",220.0,0.0,220.0,220.0,0.0,0.0,0.0,0.0,0.0,1480.0,1480.0,1480.0,0.0,220.0,220.0,220.0,600.0,0.0,600.0,600.0,495.0,0.0,495.0,495.0,Holstein,78.0,3015.0,54199.7,669838.05,468886.64,111052.26,291212.54,747447.0,29035679.0,29035679.0,0.0,0.0,"13436 N Thornton RD, Lodi, CA 95242",38.10004,-121.3829
286,286,286,Martins Brothers Dairy,6041 Central AVE,Hilmar,Merced,95324,,,,,(209) 668-2495,01/01/1998,San Joaquin River Basin,0045-0060-0007-0000,300.0,0.0,300.0,300.0,30.0,0.0,30.0,30.0,0.0,1639.0,1639.0,1639.0,0.0,253.0,253.0,253.0,590.0,150.0,740.0,740.0,600.0,0.0,600.0,600.0,Holstein,70.0,3562.0,60741.72,739889.48,517922.64,121866.5,313883.62,829900.5,22328864.0,20168864.0,0.0,2160000.0,"6041 Central AVE, Hilmar, CA 95324",37.3788,-120.95995
287,287,287,Fire-Lake Jerseys,11301 W Bradbury RD,Turlock,Stanislaus,95380,P.O. Box 459,Hilmar,CA,95324,(209) 632-2924,01/01/1950,San Joaquin River Basin,"X058-X025-X004-XXXX, X058-X025-X005-XXXX",20.0,0.0,20.0,20.0,53.0,0.0,53.0,53.0,20.0,218.0,238.0,234.0,22.0,0.0,22.0,22.0,110.0,0.0,110.0,110.0,37.0,23.0,60.0,60.0,Jersey,54.0,499.0,7710.41,96612.23,67628.56,15753.63,42353.35,115237.8,4760000.0,4760000.0,0.0,0.0,"11301 W Bradbury RD, Turlock, CA 95380",37.44956,-120.97848
288,288,288,Dewit Dairy,6610 E Collier RD,Acampo,San Joaquin,95220,,,,,(209) 423-3783,06/01/1970,San Joaquin River Basin,"X005-X250-XX04-XXXX, X005-X250-XX57-XXXX",0.0,210.0,210.0,210.0,0.0,200.0,200.0,200.0,0.0,1400.0,1400.0,1400.0,0.0,120.0,120.0,120.0,375.0,0.0,375.0,375.0,0.0,295.0,295.0,295.0,Holstein,75.0,2600.0,46626.74,586707.36,410695.15,96596.52,272711.92,686784.0,26720000.0,26720000.0,0.0,0.0,"6610 E Collier RD, Acampo, CA 95220",38.21635,-121.23819
290,290,290,PH RANCH #2,2618 S Highway 59,Merced,Merced,95340,,,,,(123) 000-0000,01/01/1974,San Joaquin River Basin,"X066-X100-X013-XXXX, X066-X100-X014-XXXX",0.0,0.0,0.0,0.0,0.0,0.0,0.0,0.0,0.0,631.0,700.0,631.0,0.0,85.0,110.0,85.0,0.0,0.0,0.0,0.0,0.0,0.0,0.0,0.0,Holstein,75.0,716.0,17817.59,231978.56,162384.99,38764.63,122915.16,316652.1,42240000.0,42240000.0,0.0,0.0,"2618 S Highway 59, Merced, CA 95340",37.24965,-120.48783
291,291,291,P&D Dairy South,28399 W Husman RD,Gustine,Merced,95322,,,,,(209) 649-4967,01/01/1960,San Joaquin River Basin,X070-X060-X041-XXXX,200.0,0.0,200.0,0.0,0.0,0.0,0.0,0.0,0.0,150.0,150.0,150.0,0.0,0.0,0.0,0.0,0.0,0.0,0.0,0.0,700.0,0.0,700.0,700.0,Holstein,75.0,850.0,13259.18,154260.71,107982.5,26127.44,41685.96,70627.5,25920000.0,25920000.0,0.0,0.0,"28399 W Husman RD, Gustine, CA 95322",37.15841,-121.00275
293,293,293,Nylund Dairy Farms,20723 Geer RD,Hilmar,Merced,95324,P.O. Box 1029,Hilmar,CA,95324,(209) 652-5424,01/01/1921,San Joaquin River Basin,"0045-0200-0034-0000, 0045-0200-0035-0000, 0045-0200-0037-0000, 0045-0200-0061-0000",0.0,180.0,180.0,180.0,0.0,300.0,300.0,300.0,0.0,2050.0,2050.0,2050.0,0.0,300.0,300.0,300.0,0.0,600.0,600.0,600.0,200.0,220.0,420.0,420.0,Holstein,75.0,3850.0,69834.82,879333.42,615533.39,144629.23,399328.16,1034227.5,27940200.0,24900000.0,0.0,3040200.0,"20723 Geer RD, Hilmar, CA 95324",37.39524,-120.86155
294,294,294,Gentle Breezes Dairy,4419 S Faith Home RD,Turlock,Stanislaus,95380,,,,,(209) 850-1841,01/01/1974,San Joaquin River Basin,"X058-X031-X003-XXXX, X058-X031-X021-XXXX",37.0,0.0,37.0,37.0,0.0,0.0,0.0,0.0,0.0,386.0,386.0,386.0,0.0,39.0,39.0,39.0,130.0,0.0,130.0,130.0,203.0,0.0,203.0,203.0,Jersey,65.0,795.0,13406.14,167105.11,116973.58,27792.89,72654.55,190716.15,18525000.0,18525000.0,0.0,0.0,"4419 S Faith Home RD, Turlock, CA 95380",37.45134,-120.92409
295,295,295,Frank Chaves and Sons Dairy #1,13080 E Harney LN,Lodi,San Joaquin,95240,,,,,(209) 368-1740,01/05/1940,San Joaquin River Basin,X063-X260-XX14-XXXX,30.0,0.0,30.0,30.0,0.0,0.0,0.0,0.0,0.0,500.0,500.0,500.0,0.0,100.0,100.0,100.0,140.0,0.0,140.0,140.0,150.0,0.0,150.0,150.0,Holstein,64.0,920.0,16801.68,210390.67,147273.47,34717.29,93783.61,258420.0,5040000.0,5040000.0,0.0,0.0,"13080 E Harney LN, Lodi, CA 95240",38.09821,-121.15759
296,296,296,Duivenvoorden Farms,19490 Draper Road,Cottonwood,Tehama,96022,,,,,(530) 567-8178,01/01/1963,Sacramento River Basin,0004-0140-0571-0000,5.0,0.0,10.0,5.0,5.0,0.0,10.0,5.0,35.0,0.0,40.0,35.0,6.0,0.0,10.0,6.0,5.0,0.0,10.0,5.0,0.0,0.0,0.0,0.0,Holstein,40.0,56.0,941.97,12207.62,8545.33,1951.95,6012.97,17859.45,,0.0,0.0,0.0,"19490 Draper Road, Cottonwood, CA 96022",40.36932,-122.311
297,297,297,Luis A. Pimentel Dairy,11375 Bruceville RD,Elk Grove,Sacramento,95758,,,,,(123) 000-0000,01/01/1953,Sacramento River Basin,X132-X240-X007-XXXX,59.0,0.0,59.0,59.0,0.0,0.0,0.0,0.0,0.0,260.0,260.0,260.0,35.0,0.0,35.0,35.0,23.0,0.0,23.0,23.0,81.0,0.0,81.0,81.0,Holstein,68.0,458.0,8248.74,105672.91,73971.04,17342.11,49450.76,130469.25,7344000.0,7344000.0,0.0,0.0,"11375 Bruceville RD, Elk Grove, CA 95758",38.34412,-121.41276
298,298,298,Jordao Dairy,6025 S Central AVE,Turlock,Stanislaus,95380,,,,,(209) 656-8438,04/01/2007,San Joaquin River Basin,"X045-X030-X013-XXXX, X045-X030-X022-XXXX, X057-X004-X013-XXXX, X057-X004-X014-XXXX",175.0,0.0,175.0,175.0,155.0,0.0,155.0,155.0,0.0,875.0,875.0,875.0,0.0,90.0,90.0,90.0,255.0,0.0,255.0,255.0,400.0,0.0,400.0,400.0,Holstein,73.0,1950.0,31451.95,392933.04,275053.13,64301.09,169295.2,432689.25,12220000.0,15720000.0,3500000.0,0.0,"6025 S Central AVE, Turlock, CA 95380",37.43594,-120.96304
299,299,299,Double Cross #2,18637 E Bradbury RD,Turlock,Merced,95380,,,,,(209) 668-0807,01/01/1984,San Joaquin River Basin,"X045-X910-X001-XXXX, X045-X910-X004-XXXX",0.0,0.0,0.0,0.0,0.0,0.0,0.0,0.0,0.0,658.0,658.0,658.0,53.0,0.0,53.0,53.0,0.0,11.0,11.0,11.0,857.0,0.0,857.0,857.0,Jersey-Holstein Cross,64.0,1579.0,24787.09,306667.76,214667.43,51462.76,123419.24,322006.65,23535000.0,28980000.0,5445000.0,0.0,"18637 E Bradbury RD, Turlock, CA 95380",37.44861,-120.82583
301,301,301,"Gioletti, Inc.",10007 Fulkerth RD,Ceres,Stanislaus,95307,,,,,(209) 656-9703,01/01/1940,San Joaquin River Basin,X022-X021-X005-XXXX,130.0,0.0,140.0,130.0,0.0,0.0,0.0,0.0,1.0,0.0,1.0,1.0,125.0,0.0,140.0,125.0,400.0,0.0,500.0,400.0,150.0,0.0,200.0,150.0,Holstein,1.0,806.0,7764.83,81880.0,57316.0,12351.31,146.18,29214.6,15435000.0,28927500.0,13492500.0,0.0,"10007 Fulkerth RD, Ceres, CA 95307",37.50922,-120.96528
303,303,303,Double Diamond Dairy,505 E Washington RD,El Nido,Merced,95317,,,,,(209) 564-2000,11/17/1999,San Joaquin River Basin,X075-X740-X001-XXXX,910.0,0.0,940.0,910.0,988.0,0.0,1000.0,988.0,0.0,4790.0,4800.0,4790.0,0.0,700.0,720.0,700.0,1065.0,0.0,1150.0,1065.0,930.0,0.0,1000.0,930.0,Holstein,86.0,9383.0,168024.03,2138134.99,1496694.49,349350.54,967681.68,2416336.5,236446514.0,236446514.0,0.0,0.0,"505 E Washington RD, El Nido, CA 95317",37.11199,-120.48345
306,306,306,Hawkins Ranch,5301 N De Angelis RD,Stevinson,Merced,95374,,,,,(209) 634-4908,01/01/1940,San Joaquin River Basin,X055-X010-X007-XXXX,0.0,538.0,538.0,538.0,0.0,688.0,688.0,688.0,0.0,0.0,0.0,0.0,0.0,0.0,0.0,0.0,0.0,0.0,0.0,0.0,607.0,0.0,607.0,607.0,Holstein,1.0,1833.0,10197.66,120252.9,84177.03,14178.57,1.0,0.0,9608969.0,0.0,0.0,9608969.0,"5301 N De Angelis RD, Stevinson, CA 95374",37.36422,-120.93746
308,308,308,"Martins View Jersey Dairy, INC",1369 S Hunt RD,Gustine,Merced,95322,,,,,(209) 678-2208,01/01/1941,San Joaquin River Basin,0063-0050-0028-0000,0.0,0.0,0.0,0.0,0.0,0.0,0.0,0.0,0.0,1375.0,1375.0,1300.0,135.0,0.0,195.0,155.0,50.0,0.0,50.0,50.0,0.0,0.0,0.0,0.0,Jersey,65.0,1505.0,35093.19,459052.64,321336.85,76514.19,244691.49,647747.25,11826694.0,9861840.0,0.0,1964854.0,"1369 S Hunt RD, Gustine, CA 95322",37.26933,-120.99668
309,309,309,"G.J. Silva Dairy, Inc.",3107 S Prairie Flower RD,Turlock,Stanislaus,95380,,,,,(209) 634-9091,06/01/1961,San Joaquin River Basin,"0058-0015-0004-0000, 0058-0015-0010-0000, 0058-0016-0015-0000, 0058-0030-0001-0000, 0058-0031-0001-0000, 0058-0031-0010-0000",0.0,0.0,500.0,500.0,500.0,0.0,500.0,500.0,0.0,2200.0,2200.0,2200.0,0.0,200.0,200.0,200.0,1705.0,0.0,1705.0,1705.0,1705.0,0.0,1705.0,1705.0,Holstein,75.0,6810.0,96967.92,1165924.28,816147.0,191210.93,428547.3,1081860.0,43521000.0,43521000.0,0.0,0.0,"3107 S Prairie Flower RD, Turlock, CA 95380",37.46578,-120.93104
310,310,310,Vierra Dairy Farms #2,22682 W Williams AVE,Hilmar,Merced,95324,P.O. Box 1131,Turlock,CA,95381,(209) 668-0343,01/01/1970,San Joaquin River Basin,X045-X190-X032-XXXX,0.0,0.0,0.0,0.0,0.0,0.0,0.0,0.0,0.0,474.0,480.0,474.0,0.0,0.0,0.0,0.0,0.0,0.0,0.0,0.0,798.0,0.0,798.0,798.0,Holstein,65.0,1272.0,19434.48,231063.7,161744.59,39059.89,89218.28,223182.9,4950000.0,4950000.0,0.0,0.0,"22682 W Williams AVE, Hilmar, CA 95324",37.39184,-120.89795
311,311,311,Gentle Breezes Dairy,4419 S Faith Home RD,Turlock,Stanislaus,95380,,,,,(209) 850-1841,01/01/1974,San Joaquin River Basin,"X058-X031-X003-XXXX, X058-X031-X021-XXXX",37.0,0.0,37.0,37.0,0.0,0.0,0.0,0.0,0.0,386.0,386.0,386.0,0.0,39.0,39.0,39.0,130.0,0.0,130.0,130.0,203.0,0.0,203.0,203.0,Jersey,65.0,795.0,13406.14,167105.11,116973.58,27792.89,72654.55,190716.15,18525000.0,18525000.0,0.0,0.0,"4419 S Faith Home RD, Turlock, CA 95380",37.45134,-120.92409
312,312,312,Martin Family Dairy,11401 N DAVIS RD,LODI,San Joaquin,95242,P.O. Box 7976,Stockton,CA,95267,(209) 329-1786,12/01/2007,San Joaquin River Basin,"X055-X210-X030-XXXX, X055-X210-X080-XXXX",0.0,0.0,0.0,0.0,0.0,0.0,0.0,0.0,0.0,0.0,0.0,0.0,0.0,0.0,0.0,0.0,0.0,0.0,0.0,0.0,0.0,0.0,0.0,0.0,Holstein,1.0,,1.0,1.0,0.7,1.0,1.0,0.0,,0.0,0.0,0.0,"11401 N DAVIS RD, LODI, CA 95242",38.06912,-121.33347
315,315,315,,20508 W Cotton RD,Los Banos,Merced,93635,,,,,(209) 826-2074,09/01/1951,San Joaquin River Basin,"0083-0220-0019-0000, 0088-0081-0002-0000, 0088-0100-0070-0000, 0088-0230-0002-0000",0.0,30.0,40.0,30.0,0.0,0.0,22.0,18.0,0.0,400.0,400.0,390.0,0.0,65.0,65.0,60.0,122.0,0.0,130.0,120.0,139.0,0.0,145.0,130.0,,75.0,748.0,13741.33,170918.24,119642.77,28327.39,75969.75,197428.5,2280000.0,2280000.0,0.0,0.0,"20508 W Cotton RD, Los Banos, CA 93635",37.0158,-120.86512
316,316,316,De Jong Bros Dairy,11006 East AVE,Ballico,Merced,95303,,,,,(209) 632-7740,02/01/1981,San Joaquin River Basin,X042-X030-X026-XXXX,200.0,0.0,200.0,200.0,0.0,0.0,0.0,0.0,0.0,1325.0,1325.0,1325.0,200.0,0.0,200.0,200.0,400.0,0.0,400.0,400.0,600.0,0.0,600.0,600.0,Holstein,80.0,2725.0,48800.68,606330.23,424431.16,100569.75,262454.98,669866.25,38580000.0,38580000.0,0.0,0.0,"11006 East AVE, Ballico, CA 95303",37.50078,-120.68417
317,317,317,Frank Teicheira and Son,27527 S Airport WAY,Manteca,San Joaquin,95337,,,,,(209) 823-5844,01/01/1950,San Joaquin River Basin,"X257-XX04-XX14-XXXX, X257-XX04-XX15-XXXX, X257-XX04-XX16-XXXX, X257-XX04-XX17-XXXX, X257-XX04-XXX1-XXXX",0.0,0.0,0.0,0.0,0.0,0.0,0.0,0.0,0.0,0.0,0.0,0.0,0.0,0.0,0.0,0.0,0.0,0.0,0.0,0.0,0.0,0.0,0.0,0.0,Holstein,1.0,,1.0,1.0,0.7,1.0,1.0,0.0,,0.0,0.0,0.0,"27527 S Airport WAY, Manteca, CA 95337",37.70661,-121.24572
318,318,318,3A Teixeira,12926 N Vincent RD,Turlock,Merced,95380,,,,,(209) 968-0610,01/01/1940,San Joaquin River Basin,X041-X130-X049-XXXX,110.0,0.0,110.0,110.0,0.0,0.0,0.0,0.0,0.0,826.0,826.0,826.0,0.0,140.0,140.0,140.0,190.0,0.0,190.0,190.0,235.0,0.0,235.0,235.0,Jersey-Holstein Cross,70.0,1501.0,27630.38,348527.46,243969.22,57494.08,158186.62,421115.1,28731000.0,28731000.0,0.0,0.0,"12926 N Vincent RD, Turlock, CA 95380",37.47662,-120.77572
319,319,319,Alamo Dairy,1500 Fulkerth RD,Crows Landing,Stanislaus,95313,P.O. Box 99,Keyes,CA,95328,(209) 667-5735,01/01/1980,San Joaquin River Basin,"X022-X033-X007-XXXX, XO22-X035-X012-XXXX",600.0,0.0,600.0,600.0,0.0,600.0,600.0,600.0,0.0,1000.0,1400.0,1000.0,0.0,600.0,600.0,600.0,1200.0,0.0,1200.0,1200.0,1200.0,0.0,1200.0,1200.0,Holstein,75.0,5200.0,62363.4,741632.4,519142.68,115522.76,194794.23,608820.0,37695526.0,0.0,0.0,37695526.0,"1500 Fulkerth RD, Crows Landing, CA 95313",37.50404,-121.01614
321,321,321,N & C Silveira Dairy,6025 Hultberg RD,Turlock,Stanislaus,95380,,,,,(209) 668-2728,01/01/1970,San Joaquin River Basin,X057-X170-X006-XXXX,0.0,30.0,30.0,30.0,0.0,0.0,0.0,0.0,0.0,832.0,832.0,832.0,0.0,29.0,29.0,29.0,0.0,20.0,20.0,20.0,0.0,0.0,0.0,0.0,Jersey,60.0,911.0,21043.3,274993.04,192495.13,46019.93,153869.44,398415.75,8502890.0,6450000.0,0.0,2052890.0,"6025 Hultberg RD, Turlock, CA 95380",37.43532,-120.89702
322,322,322,Vierra Heifer Ranch (Formerly Vierra Dairy Farms #4),25511 American AVE,Hilmar,Merced,95324,,,,,(209) 668-0343,11/01/1980,San Joaquin River Basin,X045-X020-X006-XXXX,0.0,0.0,0.0,0.0,0.0,0.0,0.0,0.0,0.0,0.0,0.0,0.0,0.0,0.0,0.0,0.0,86.0,200.0,286.0,286.0,0.0,0.0,0.0,0.0,Holstein,1.0,286.0,2942.74,27141.4,18998.98,4593.16,1.0,0.0,2664000.0,2664000.0,0.0,0.0,"25511 American AVE, Hilmar, CA 95324",37.41031,-120.95197
327,327,327,AJ Borba Holsteins,6275 Mitchell RD,Hilmar,Merced,95324,P.O. Box 670,Hilmar,CA,95324,(209) 656-1011,01/01/1935,San Joaquin River Basin,"X045-X050-X005-XXXX, X045-X050-X007-XXXX, X045-X080-X002-XXXX",0.0,210.0,210.0,210.0,0.0,225.0,225.0,225.0,0.0,1410.0,1410.0,1410.0,0.0,330.0,330.0,330.0,0.0,525.0,525.0,525.0,0.0,650.0,650.0,650.0,Holstein,74.0,3350.0,54420.78,675501.29,472850.9,110040.12,273733.49,739782.0,30084000.0,30084000.0,0.0,0.0,"6275 Mitchell RD, Hilmar, CA 95324",37.38144,-120.94619
328,328,328,Staas Farms Inc.,4501 Virginia Road,Marysville,Yuba,95901,,,,,(530) 742-3668,07/01/1974,Sacramento River Basin,0014-0230-0123-0000,0.0,400.0,400.0,400.0,300.0,0.0,300.0,300.0,0.0,850.0,850.0,850.0,0.0,350.0,350.0,350.0,0.0,350.0,350.0,350.0,0.0,350.0,350.0,350.0,Jersey,65.0,2600.0,32402.71,408081.98,285657.39,63571.98,146840.68,480705.0,82660000.0,82660000.0,0.0,0.0,"4501 Virginia Road, Marysville, CA 95901",39.08563,-121.48699
332,332,332,"Dutra Farms, Inc.",5496 W Ripon RD,Manteca,San Joaquin,95337,,,,,(209) 479-4502,01/01/1950,San Joaquin River Basin,"0257-0001-0003-0000, 0257-0002-0001-0000, 0257-0002-0002-0000, 0257-0002-0007-0000",200.0,0.0,200.0,200.0,200.0,0.0,200.0,200.0,0.0,1300.0,1300.0,1300.0,230.0,0.0,230.0,230.0,700.0,0.0,700.0,700.0,600.0,0.0,600.0,600.0,Holstein,70.0,3230.0,50123.62,621779.13,435245.39,101675.28,248961.99,664993.5,7152000.0,7152000.0,0.0,0.0,"5496 W Ripon RD, Manteca, CA 95337",37.73736,-121.23842
334,334,334,Amaral Dairy Farms,7706 Tegner RD,Hilmar,Merced,95324,,,,,(209) 652-9197,01/01/1926,San Joaquin River Basin,X045-X200-X005-XXXX,0.0,0.0,0.0,0.0,0.0,30.0,30.0,30.0,0.0,221.0,221.0,221.0,0.0,36.0,36.0,36.0,0.0,0.0,0.0,0.0,0.0,38.0,38.0,38.0,Holstein,68.0,325.0,6574.39,85149.97,59604.98,14009.12,42033.15,112336.05,5770000.0,2250000.0,0.0,3520000.0,"7706 Tegner RD, Hilmar, CA 95324",37.4007,-120.88641
335,335,335,Leo and Ida Martin Dairy,7266 Lindsay AVE,Orland,Glenn,95963,,,,,(530) 865-9425,01/01/1970,Sacramento River Basin,0037-0120-0005-0000,0.0,0.0,0.0,0.0,0.0,0.0,0.0,0.0,0.0,0.0,0.0,0.0,0.0,0.0,0.0,0.0,0.0,0.0,0.0,0.0,0.0,0.0,0.0,0.0,Holstein,1.0,,1.0,1.0,0.7,1.0,1.0,0.0,,0.0,0.0,0.0,"7266 Lindsay AVE, Orland, CA 95963",39.77765,-122.11169
337,337,337,J & J Toste Dairy Inc.,2207 S walnut RD,Turlock,Stanislaus,95380,,,,,(209) 632-1921,10/05/1966,San Joaquin River Basin,X044-X015-X032-XXXX,100.0,0.0,200.0,100.0,0.0,0.0,0.0,0.0,0.0,310.0,620.0,310.0,42.0,0.0,85.0,42.0,200.0,0.0,200.0,200.0,200.0,0.0,200.0,200.0,Holstein,70.0,852.0,12805.69,154702.83,108291.98,25398.26,59367.86,155621.4,8775000.0,8775000.0,0.0,0.0,"2207 S walnut RD, Turlock, CA 95380",37.47152,-120.86761
342,342,342,California Dairy Farms-Howard,2363 N Howard RD,Livingston,Merced,95334,P.O. Box 1090,Hilmar,CA,95324,(209) 285-0001,12/01/1986,San Joaquin River Basin,"X049-X090-X005-XXXX, X049-X090-X006-XXXX, X049-X090-X013-XXXX",1000.0,0.0,1000.0,1000.0,0.0,0.0,0.0,0.0,0.0,4500.0,4500.0,4500.0,0.0,750.0,750.0,750.0,1500.0,0.0,1500.0,1500.0,2500.0,0.0,2500.0,2500.0,Jersey,60.0,10250.0,159664.7,2007734.75,1405414.33,328724.73,832226.52,2291287.5,33639000.0,33639000.0,0.0,0.0,"2363 N Howard RD, Livingston, CA 95334",37.32356,-120.78881
343,343,343,Edwin H. Smith and Sons Dairy,4836 N Quincy RD,Denair,Stanislaus,95316,,,,,(123) 000-0000,01/01/1940,San Joaquin River Basin,"X045-X057-X009-XXXX, X045-X057-X019-XXXX",77.0,0.0,102.0,77.0,87.0,0.0,109.0,87.0,0.0,923.0,950.0,923.0,110.0,0.0,137.0,110.0,336.0,0.0,365.0,336.0,175.0,0.0,190.0,175.0,Holstein,68.0,1708.0,30613.11,383672.52,268570.76,63334.28,175550.19,459889.05,17986975.0,17986975.0,0.0,0.0,"4836 N Quincy RD, Denair, CA 95316",37.53845,-120.81609
345,345,345,KISST DAIRY #1,20000 CEDAR AVE,TRACY,San Joaquin,95304,P.O. Box 300,Ripon,CA,95366,(209) 481-1188,10/01/1992,San Joaquin River Basin,"X213-X190-XX09-XXXX, X213-X190-XX16-XXXX, X213-X190-XX17-XXXX",300.0,0.0,300.0,300.0,0.0,0.0,0.0,0.0,0.0,1000.0,1000.0,1000.0,0.0,70.0,70.0,70.0,900.0,0.0,900.0,900.0,800.0,0.0,800.0,800.0,Holstein,85.0,3070.0,45543.93,547832.0,383482.4,91082.36,201364.23,486946.5,13380000.0,13380000.0,0.0,0.0,"20000 CEDAR AVE, TRACY, CA 95304",37.77813,-121.34758
347,347,347,Diamond B Dairy,3137 E Tuolumne RD,Ceres,Stanislaus,95307,,,,,(209) 652-3681,01/01/1945,San Joaquin River Basin,"X022-X017-X005-XXXX, X022-X019-X004-XXXX",0.0,0.0,0.0,0.0,0.0,0.0,0.0,0.0,0.0,665.0,665.0,665.0,0.0,0.0,0.0,0.0,0.0,183.0,183.0,183.0,199.0,0.0,199.0,199.0,Holstein,76.0,1047.0,21296.46,265402.06,185781.44,45017.94,129975.07,313115.25,10278000.0,10278000.0,0.0,0.0,"3137 E Tuolumne RD, Ceres, CA 95307",37.51634,-120.93573
348,348,348,Double Cross #5 (Formerly CMA Livestock),19051 W Williams RD,Hilmar,Merced,95324,P.O. Box 820,Hilmar,CA,95324,(209) 668-0867,01/01/1982,San Joaquin River Basin,X045-X220-X063-XXXX,425.0,0.0,425.0,425.0,0.0,0.0,0.0,0.0,0.0,58.0,58.0,58.0,0.0,626.0,626.0,626.0,1269.0,0.0,1269.0,1269.0,0.0,0.0,0.0,0.0,Jersey,69.0,2378.0,23444.54,275753.65,193027.56,40272.97,11069.43,171258.0,31744500.0,31744500.0,0.0,0.0,"19051 W Williams RD, Hilmar, CA 95324",37.38942,-120.83263
349,349,349,,9120 Crowslanding Rd,Crowslanding,Stanislaus,95313,P.O. Box 684,Ceres,CA,95307,(209) 312-3014,01/01/1940,San Joaquin River Basin,0011-0037-0001-0000,0.0,0.0,0.0,0.0,0.0,0.0,0.0,0.0,0.0,0.0,0.0,0.0,0.0,0.0,0.0,0.0,0.0,0.0,0.0,0.0,0.0,0.0,0.0,0.0,Jersey,1.0,,1.0,1.0,0.7,1.0,1.0,0.0,,0.0,0.0,0.0,"9120 Crowslanding Rd, Crowslanding, CA 95313",37.50537,-120.99426
350,350,350,Reis Dairy,6730 W Harding RD,Turlock,Stanislaus,95380,,,,,(209) 634-9091,01/01/1950,San Joaquin River Basin,"X058-X031-X001-XXXX, X058-X031-X025-XXXX",0.0,0.0,0.0,0.0,0.0,0.0,0.0,0.0,0.0,0.0,0.0,0.0,0.0,0.0,0.0,0.0,0.0,0.0,0.0,0.0,0.0,0.0,0.0,0.0,Holstein,1.0,,1.0,1.0,0.7,1.0,1.0,0.0,1800000.0,1800000.0,0.0,0.0,"6730 W Harding RD, Turlock, CA 95380",37.46173,-120.92403
351,351,351,Judith Pond Property,10300 Dillard RD,Wilton,Sacramento,95693,,,,,(916) 682-7687,01/01/1970,Sacramento River Basin,X134-X230-X020-XXXX,0.0,0.0,0.0,0.0,0.0,0.0,0.0,0.0,0.0,0.0,0.0,0.0,0.0,0.0,0.0,0.0,0.0,0.0,0.0,0.0,0.0,0.0,0.0,0.0,Jersey-Holstein Cross,1.0,,1.0,1.0,0.7,1.0,1.0,0.0,1620000.0,1620000.0,0.0,0.0,"10300 Dillard RD, Wilton, CA 95693",38.38308,-121.28814
352,352,352,Hillside Farms (Silveira Dairy),3719 County Rd. C,Orland,Glenn,95963,,,,,(530) 865-1337,01/01/1985,Sacramento River Basin,0024-0002-0007-0009,0.0,0.0,0.0,0.0,0.0,0.0,0.0,0.0,0.0,0.0,0.0,0.0,0.0,0.0,0.0,0.0,500.0,0.0,500.0,500.0,300.0,0.0,300.0,300.0,,1.0,800.0,8428.55,75920.0,53144.0,12848.0,3500.0,0.0,,0.0,0.0,0.0,"3719 County Rd. C, Orland, CA 95963",39.68553,-122.27268
354,354,354,Couto Dairy,1980 County Road QQ,Willows,Glenn,95988,,,,,(530) 570-9430,03/15/1963,Sacramento River Basin,0016-0190-0006-0000,50.0,0.0,55.0,50.0,50.0,0.0,55.0,50.0,0.0,310.0,325.0,310.0,30.0,0.0,35.0,35.0,75.0,0.0,80.0,75.0,75.0,0.0,80.0,75.0,,50.0,595.0,9494.74,120186.68,84130.68,19465.33,55294.46,154011.75,8964000.0,8964000.0,0.0,0.0,"1980 County Road QQ, Willows, CA 95988",39.5366,-122.11909
357,357,357,Borges Dairy LLC (former John & Teresa Borges Dairy),25834 Kasson RD,Tracy,San Joaquin,95304,,,,,(209) 652-1126,01/01/1938,San Joaquin River Basin,X239-XX15-X001-XXXX,50.0,0.0,60.0,50.0,45.0,0.0,50.0,45.0,0.0,400.0,420.0,400.0,58.0,0.0,60.0,58.0,115.0,0.0,120.0,115.0,120.0,0.0,125.0,120.0,Holstein,65.0,788.0,13656.21,168824.12,118176.88,27661.45,75289.69,201677.1,16067541.0,16067541.0,0.0,0.0,"25834 Kasson RD, Tracy, CA 95304",37.72201,-121.32216
360,360,360,Full Circle Dairy,6800 East AVE,Ballico,Merced,95303,,,,,(209) 605-0235,01/01/2001,San Joaquin River Basin,"X042-X040-X028-XXXX, X042-X040-X029-XXXX, X042-X040-X034-XXXX",0.0,0.0,0.0,0.0,0.0,0.0,0.0,0.0,0.0,550.0,550.0,550.0,0.0,0.0,0.0,0.0,100.0,0.0,100.0,100.0,50.0,0.0,50.0,50.0,Jersey-Holstein Cross,40.0,700.0,13572.04,173375.46,121362.82,28981.42,94489.57,258967.5,9792000.0,9792000.0,0.0,0.0,"6800 East AVE, Ballico, CA 95303",37.4929,-120.60996
362,362,362,Vander Meulen Dairy,20250 Avena RD,Escalon,San Joaquin,95320,,,,,(209) 838-2606,01/01/1970,San Joaquin River Basin,0205-0110-0001-0000,0.0,0.0,0.0,0.0,0.0,0.0,0.0,0.0,0.0,0.0,0.0,0.0,0.0,0.0,0.0,0.0,100.0,0.0,100.0,100.0,100.0,0.0,100.0,100.0,Holstein,1.0,200.0,1860.76,18980.0,13286.0,3212.0,1.0,0.0,,0.0,0.0,0.0,"20250 Avena RD, Escalon, CA 95320",37.83957,-121.05719
364,364,364,Alfred C. Nunes Dairy,5119 S Morgan RD,Turlock,Stanislaus,95380,,,,,(209) 632-6636,01/01/1976,San Joaquin River Basin,0057-0002-0010-0000,0.0,0.0,0.0,0.0,0.0,0.0,0.0,0.0,0.0,900.0,900.0,900.0,110.0,0.0,110.0,110.0,0.0,0.0,0.0,0.0,0.0,0.0,0.0,0.0,Holstein,77.0,1010.0,25437.4,331584.19,232108.93,55527.46,176497.4,449059.5,15480000.0,15480000.0,0.0,0.0,"5119 S Morgan RD, Turlock, CA 95380",37.44718,-120.97868
365,365,365,GJC Dairy #1,2401 Newman RD,Turlock,Stanislaus,95380,P.O. Box 2397,Turlock,CA,95381,(209) 668-2244,11/01/1985,San Joaquin River Basin,X058-X014-X018-XXXX,0.0,150.0,150.0,150.0,0.0,0.0,0.0,0.0,0.0,600.0,600.0,600.0,0.0,96.0,96.0,96.0,50.0,0.0,50.0,50.0,250.0,0.0,250.0,250.0,Holstein,73.0,1146.0,20317.32,257645.09,180351.56,42247.23,116088.14,304585.2,3780000.0,3780000.0,0.0,0.0,"2401 Newman RD, Turlock, CA 95380",37.47088,-120.92856
366,366,366,Pimentel Dairy,11391 Franklin BLVD,Elk Grove,Sacramento,95757,,,,,(123) 000-0000,07/03/1953,Sacramento River Basin,X132-X251-X007-XXXX,0.0,0.0,0.0,0.0,0.0,0.0,0.0,0.0,0.0,350.0,350.0,350.0,0.0,30.0,30.0,30.0,100.0,0.0,100.0,100.0,80.0,0.0,80.0,80.0,Holstein,62.0,560.0,10884.69,135643.55,94950.49,22695.74,65188.63,171696.0,11487000.0,11487000.0,0.0,0.0,"11391 Franklin BLVD, Elk Grove, CA 95757",38.34691,-121.44178
367,367,367,Tiberio Azevedo Dairy,21480 August AVE,Hilmar,Merced,95324,,,,,(209) 678-3074,01/01/1980,San Joaquin River Basin,X045-X140-X049-XXXX,74.0,0.0,74.0,74.0,120.0,0.0,120.0,120.0,0.0,807.0,807.0,807.0,102.0,0.0,102.0,102.0,452.0,0.0,452.0,452.0,208.0,0.0,208.0,208.0,Holstein,70.0,1763.0,29829.54,361814.14,253269.9,59577.51,154547.95,403430.85,25367500.0,6370000.0,0.0,18997500.0,"21480 August AVE, Hilmar, CA 95324",37.42186,-120.87709
368,368,368,Silva Bros # 3,5601 Escalon-Bellota RD,Farmington,San Joaquin,95320,,,,,(209) 607-7197,01/01/1975,San Joaquin River Basin,X187-X110-XX07-XXXX,50.0,0.0,50.0,50.0,50.0,0.0,50.0,50.0,0.0,350.0,350.0,350.0,50.0,0.0,50.0,50.0,160.0,0.0,160.0,160.0,160.0,0.0,160.0,160.0,Holstein,71.0,820.0,13244.67,162523.1,113766.17,26676.04,67258.18,176295.0,18360000.0,18360000.0,0.0,0.0,"5601 Escalon-Bellota RD, Farmington, CA 95320",37.92116,-120.99711
369,369,369,California State University Chico Research Foundation,311 Nicholas C. Schouten Lane,Chico,Butte,95928,,,,,(530) 898-6343,08/15/1963,Sacramento River Basin,"0039-0080-0030-0000, 0039-0220-0025-0000",10.0,0.0,15.0,10.0,15.0,0.0,20.0,15.0,80.0,0.0,85.0,80.0,10.0,0.0,15.0,10.0,15.0,0.0,20.0,15.0,15.0,0.0,20.0,15.0,Jersey,60.0,145.0,2467.37,31552.34,22086.64,5129.55,14795.14,39967.5,,0.0,0.0,0.0,"311 Nicholas C. Schouten Lane, Chico, CA 95928",39.69263,-121.82294
370,370,370,Clauss Dairy Farms,21670 W Bloss AVE,Hilmar,Merced,95324,,,,,(209) 667-4582,01/01/1950,San Joaquin River Basin,"0045-0170-0013-0000, 0045-0170-0017-0000, 0045-0170-0023-0000",607.0,0.0,607.0,607.0,0.0,692.0,692.0,692.0,0.0,2133.0,2133.0,2133.0,0.0,319.0,319.0,319.0,0.0,125.0,125.0,125.0,0.0,32.0,32.0,32.0,Jersey,51.0,3908.0,60076.7,792674.39,554872.07,124572.7,381862.94,1077677.1,50516500.0,53115950.0,6097450.0,3498000.0,"21670 W Bloss AVE, Hilmar, CA 95324",37.40488,-120.88071
371,371,371,Jordao Dairy,6025 S Central AVE,Turlock,Stanislaus,95380,,,,,(209) 656-8438,04/01/2007,San Joaquin River Basin,"X045-X030-X013-XXXX, X045-X030-X022-XXXX, X057-X004-X013-XXXX, X057-X004-X014-XXXX",175.0,0.0,175.0,175.0,155.0,0.0,155.0,155.0,0.0,875.0,875.0,875.0,0.0,90.0,90.0,90.0,255.0,0.0,255.0,255.0,400.0,0.0,400.0,400.0,Holstein,73.0,1950.0,31451.95,392933.04,275053.13,64301.09,169295.2,432689.25,12220000.0,15720000.0,3500000.0,0.0,"6025 S Central AVE, Turlock, CA 95380",37.43594,-120.96304
373,373,373,J-S Jimenez Dairy,3928 W Linwood AVE,Turlock,Stanislaus,95380,,,,,(209) 656-0316,06/01/2007,San Joaquin River Basin,X044-X013-X005-XXXX,0.0,0.0,0.0,0.0,0.0,0.0,0.0,0.0,183.0,0.0,183.0,183.0,42.0,0.0,42.0,42.0,0.0,0.0,0.0,0.0,0.0,0.0,0.0,0.0,Holstein,68.0,225.0,5264.65,68477.95,47934.57,11298.86,34805.73,95823.45,,0.0,0.0,0.0,"3928 W Linwood AVE, Turlock, CA 95380",37.47629,-120.89339
374,374,374,Tierra Buena Ranch,8632 W Meadow DR,Winton,Merced,95388,P.O. Box 149,Ballico,CA,95303,(209) 495-0690,01/01/1937,San Joaquin River Basin,"X140-X030-X012-XXXX, X140-X030-X023-XXXX, X140-X120-X019-XXXX",390.0,0.0,400.0,0.0,0.0,540.0,550.0,0.0,0.0,1390.0,1400.0,1390.0,0.0,215.0,220.0,215.0,0.0,0.0,0.0,0.0,0.0,0.0,0.0,0.0,Holstein,89.0,1605.0,41872.11,545940.93,382158.65,91551.99,283549.2,703920.75,85952321.0,85952321.0,0.0,0.0,"8632 W Meadow DR, Winton, CA 95388",37.43049,-120.64323
375,375,375,Silveira Jerstein Dairy,4628 County Road P,Orland,Glenn,95963,P.O. Box 963,Orland,CA,95963,(530) 624-6423,01/01/1970,Sacramento River Basin,0044-0330-0001-0009,0.0,0.0,0.0,0.0,0.0,0.0,0.0,0.0,0.0,80.0,80.0,80.0,10.0,0.0,10.0,10.0,15.0,0.0,15.0,15.0,15.0,0.0,15.0,15.0,Jersey-Holstein Cross,52.0,120.0,2301.74,29292.79,20504.95,4858.64,14374.66,39967.5,172800.0,172800.0,0.0,0.0,"4628 County Road P, Orland, CA 95963",39.76586,-122.13857
376,376,376,Manuel Vieira Jr. Dairy,5843 N Utah RD,Merced,Merced,95348,,,,,(209) 564-8154,01/01/1947,San Joaquin River Basin,X052-X023-X090-XXXX,0.0,0.0,0.0,0.0,0.0,0.0,0.0,0.0,0.0,0.0,0.0,0.0,0.0,0.0,0.0,0.0,60.0,0.0,95.0,60.0,20.0,0.0,25.0,20.0,Holstein,1.0,80.0,793.58,7592.0,5314.4,1284.8,1.0,0.0,,0.0,0.0,0.0,"5843 N Utah RD, Merced, CA 95348",37.37279,-120.4981
384,384,384,Milk Made Dairy,7509 W Oakdale RD,Snelling,Merced,95369,P.O. Box 149,Ballico,CA,95303,(209) 648-4262,01/01/1998,San Joaquin River Basin,0042-0140-0029-0000,575.0,0.0,600.0,560.0,0.0,0.0,0.0,0.0,0.0,1692.0,1800.0,1692.0,275.0,0.0,310.0,290.0,275.0,0.0,310.0,285.0,700.0,0.0,700.0,690.0,Holstein,91.0,3517.0,63137.1,796054.06,557237.84,130761.43,347378.14,863363.7,115509084.0,101008715.0,0.0,14500369.0,"7509 W Oakdale RD, Snelling, CA 95369",37.46112,-120.62307
385,385,385,Nunes Farms,6801 S Carpenter RD,Modesto,Stanislaus,95358,,,,,(209) 537-6090,01/01/1990,San Joaquin River Basin,0017-0063-0021-0000,0.0,0.0,0.0,0.0,0.0,0.0,0.0,0.0,0.0,0.0,0.0,0.0,0.0,0.0,0.0,0.0,0.0,75.0,75.0,75.0,0.0,100.0,100.0,100.0,Holstein,1.0,175.0,1305.83,16607.5,11625.25,2810.5,1.0,0.0,,0.0,0.0,0.0,"6801 S Carpenter RD, Modesto, CA 95358",37.54019,-121.0309
387,387,387,Morris Jersey Girls,3230 Vivian RD,Modesto,Stanislaus,95382,P.O. Box 580596,Modesto,CA,95358,(209) 538-2130,01/01/1950,San Joaquin River Basin,X017-X043-X023-XXXX,40.0,0.0,40.0,40.0,0.0,0.0,0.0,0.0,0.0,0.0,0.0,0.0,0.0,20.0,20.0,20.0,0.0,80.0,80.0,80.0,70.0,0.0,70.0,70.0,Jersey,1.0,210.0,1761.51,19929.0,13950.3,3035.34,1.0,4599.0,4900500.0,4900500.0,0.0,0.0,"3230 Vivian RD, Modesto, CA 95382",37.58941,-121.04419
389,389,389,Joe Oliveira Dairy,19104 Crane AVE,Hilmar,Merced,95324,,,,,(209) 652-5397,12/02/1986,San Joaquin River Basin,X045-X220-X012-XXXX,320.0,0.0,320.0,320.0,0.0,199.0,199.0,199.0,0.0,1200.0,1200.0,1200.0,0.0,55.0,55.0,55.0,446.0,0.0,446.0,446.0,422.0,0.0,422.0,422.0,Holstein,80.0,2642.0,43131.32,539801.24,377860.87,88659.58,237695.07,577667.25,16059927.0,27339927.0,11280000.0,0.0,"19104 Crane AVE, Hilmar, CA 95324",37.38266,-120.83387
391,391,391,Foster Farm's Dairy No. 6,6111 E. Monte Vista AVE,Denair,Stanislaus,95316,,,,,(209) 548-7640,01/08/1987,San Joaquin River Basin,0024-0001-0001-0000,0.0,0.0,0.0,0.0,0.0,0.0,0.0,0.0,0.0,1543.0,1632.0,1543.0,399.0,0.0,714.0,399.0,24.0,0.0,30.0,24.0,0.0,0.0,0.0,0.0,Holstein,88.0,1966.0,48932.35,635204.69,444643.28,105441.84,313746.25,818271.6,86100900.0,86100900.0,0.0,0.0,"6111 E. Monte Vista AVE, Denair, CA 95316",37.52918,-120.78025
